{
"type": "FeatureCollection",
"crs": { "type": "name", "properties": { "name": "urn:ogc:def:crs:OGC:1.3:CRS84" } },
"features": [
{ "type": "Feature", "properties": { "osm_id": "node\/1010855620", "type": "sports_centre", "name": "Boxing Club du Deffens", "operator": null, "sport": "multi", "wheelchair": null, "opening_hours": null, "com_insee": "13001", "com_nom": "Aix-en-Provence" }, "geometry": { "type": "Point", "coordinates": [ 5.4192893, 43.522380800541789 ] } },
{ "type": "Feature", "properties": { "osm_id": "node\/1051103631", "type": "sports_centre", "name": "Amazonia", "operator": null, "sport": "fitness", "wheelchair": null, "opening_hours": null, "com_insee": "13055", "com_nom": "Marseille" }, "geometry": { "type": "Point", "coordinates": [ 5.3857486, 43.293045300541387 ] } },
{ "type": "Feature", "properties": { "osm_id": "node\/1166544472", "type": "sports_centre", "name": "Satde de Fontvenelle", "operator": null, "sport": null, "wheelchair": null, "opening_hours": null, "com_insee": "13041", "com_nom": "Gardanne" }, "geometry": { "type": "Point", "coordinates": [ 5.4605939, 43.459968000541991 ] } },
{ "type": "Feature", "properties": { "osm_id": "node\/1298848756", "type": "sports_centre", "name": "Palais Omnisports Marseille Grand-Est", "operator": null, "sport": "skateboard", "wheelchair": "no", "opening_hours": null, "com_insee": "13055", "com_nom": "Marseille" }, "geometry": { "type": "Point", "coordinates": [ 5.402008, 43.281572600541296 ] } },
{ "type": "Feature", "properties": { "osm_id": "node\/1363805499", "type": "sports_centre", "name": "Cercle d'Aviron de Marseille", "operator": null, "sport": "canoe", "wheelchair": null, "opening_hours": null, "com_insee": "13055", "com_nom": "Marseille" }, "geometry": { "type": "Point", "coordinates": [ 5.3167879, 43.359110000541818 ] } },
{ "type": "Feature", "properties": { "osm_id": "node\/1429402698", "type": "sports_centre", "name": "Centre UCPA Sormiou", "operator": "UCPA", "sport": "hiking;climbing;kayaking", "wheelchair": "no", "opening_hours": null, "com_insee": "13055", "com_nom": "Marseille" }, "geometry": { "type": "Point", "coordinates": [ 5.4204372, 43.21067920054049 ] } },
{ "type": "Feature", "properties": { "osm_id": "node\/1485011630", "type": "sports_centre", "name": "Société Nautique Estaque Mourepiane", "operator": null, "sport": "sailing", "wheelchair": null, "opening_hours": null, "com_insee": "13055", "com_nom": "Marseille" }, "geometry": { "type": "Point", "coordinates": [ 5.3194375, 43.357306000541797 ] } },
{ "type": "Feature", "properties": { "osm_id": "node\/1485011632", "type": "sports_centre", "name": "Union musicale et sportive Estaque-Plage", "operator": null, "sport": "judo;boules", "wheelchair": null, "opening_hours": null, "com_insee": "13055", "com_nom": "Marseille" }, "geometry": { "type": "Point", "coordinates": [ 5.3156102, 43.360090100541818 ] } },
{ "type": "Feature", "properties": { "osm_id": "node\/1486024677", "type": "sports_centre", "name": "Société Nautique Estaque Mourepiane", "operator": null, "sport": "scuba_diving", "wheelchair": null, "opening_hours": null, "com_insee": "13055", "com_nom": "Marseille" }, "geometry": { "type": "Point", "coordinates": [ 5.3192391, 43.357036900541793 ] } },
{ "type": "Feature", "properties": { "osm_id": "node\/1493475303", "type": "swimming_pool", "name": null, "operator": "Sporting Club Corniche", "sport": "swimming", "wheelchair": null, "opening_hours": null, "com_insee": "13055", "com_nom": "Marseille" }, "geometry": { "type": "Point", "coordinates": [ 5.3599898, 43.274807200541225 ] } },
{ "type": "Feature", "properties": { "osm_id": "node\/1563026872", "type": "swimming_pool", "name": null, "operator": null, "sport": null, "wheelchair": null, "opening_hours": null, "com_insee": "13110", "com_nom": "Trets" }, "geometry": { "type": "Point", "coordinates": [ 5.6883098, 43.445308900541995 ] } },
{ "type": "Feature", "properties": { "osm_id": "node\/1669070691", "type": "sports_centre", "name": "Le Doris Plongée", "operator": null, "sport": "scuba_diving", "wheelchair": null, "opening_hours": null, "com_insee": "13055", "com_nom": "Marseille" }, "geometry": { "type": "Point", "coordinates": [ 5.3123245, 43.361301200541831 ] } },
{ "type": "Feature", "properties": { "osm_id": "node\/1704967411", "type": "swimming_pool", "name": null, "operator": null, "sport": "swimming", "wheelchair": null, "opening_hours": null, "com_insee": "13047", "com_nom": "Istres" }, "geometry": { "type": "Point", "coordinates": [ 4.9828302, 43.506833300541849 ] } },
{ "type": "Feature", "properties": { "osm_id": "node\/1728137939", "type": "pitch", "name": "Gymnase", "operator": null, "sport": "multi", "wheelchair": null, "opening_hours": null, "com_insee": "13055", "com_nom": "Marseille" }, "geometry": { "type": "Point", "coordinates": [ 5.3731145, 43.31224190054153 ] } },
{ "type": "Feature", "properties": { "osm_id": "node\/1767565354", "type": "sports_centre", "name": "Stade Francis Turcan", "operator": null, "sport": "soccer", "wheelchair": null, "opening_hours": null, "com_insee": "13056", "com_nom": "Martigues" }, "geometry": { "type": "Point", "coordinates": [ 5.0495308, 43.407248400541974 ] } },
{ "type": "Feature", "properties": { "osm_id": "node\/1788756130", "type": "sports_centre", "name": "BowlingStar", "operator": null, "sport": "10pin", "wheelchair": null, "opening_hours": null, "com_insee": "13071", "com_nom": "Les Pennes-Mirabeau" }, "geometry": { "type": "Point", "coordinates": [ 5.3530948, 43.413960600541991 ] } },
{ "type": "Feature", "properties": { "osm_id": "node\/1790162711", "type": "sports_centre", "name": null, "operator": null, "sport": null, "wheelchair": null, "opening_hours": null, "com_insee": "13019", "com_nom": "Cabriès" }, "geometry": { "type": "Point", "coordinates": [ 5.3522321, 43.445845800541981 ] } },
{ "type": "Feature", "properties": { "osm_id": "node\/1827463925", "type": "pitch", "name": "barres parallèles", "operator": null, "sport": "athletics", "wheelchair": null, "opening_hours": null, "com_insee": "13001", "com_nom": "Aix-en-Provence" }, "geometry": { "type": "Point", "coordinates": [ 5.4645644, 43.523487400541768 ] } },
{ "type": "Feature", "properties": { "osm_id": "node\/1838668935", "type": "pitch", "name": null, "operator": null, "sport": "basketball", "wheelchair": null, "opening_hours": null, "com_insee": "13001", "com_nom": "Aix-en-Provence" }, "geometry": { "type": "Point", "coordinates": [ 5.4557524, 43.531523800541741 ] } },
{ "type": "Feature", "properties": { "osm_id": "node\/1839120079", "type": "sports_centre", "name": "Le Bastidon", "operator": null, "sport": "soccer", "wheelchair": null, "opening_hours": null, "com_insee": "13003", "com_nom": "Alleins" }, "geometry": { "type": "Point", "coordinates": [ 5.1664716, 43.703196000539926 ] } },
{ "type": "Feature", "properties": { "osm_id": "node\/1841421856", "type": "sports_centre", "name": "Tennis club de Carnoux", "operator": null, "sport": null, "wheelchair": null, "opening_hours": null, "com_insee": "13119", "com_nom": "Carnoux-en-Provence" }, "geometry": { "type": "Point", "coordinates": [ 5.5651602, 43.258235000541056 ] } },
{ "type": "Feature", "properties": { "osm_id": "node\/1934399295", "type": "sports_centre", "name": "Complexe Sportif et Culturel Eurocopter", "operator": null, "sport": null, "wheelchair": null, "opening_hours": null, "com_insee": "13054", "com_nom": "Marignane" }, "geometry": { "type": "Point", "coordinates": [ 5.241507, 43.410881700541971 ] } },
{ "type": "Feature", "properties": { "osm_id": "node\/1957077638", "type": "pitch", "name": "Valample", "operator": null, "sport": "climbing", "wheelchair": null, "opening_hours": null, "com_insee": "13100", "com_nom": "Saint-Rémy-de-Provence" }, "geometry": { "type": "Point", "coordinates": [ 4.8125242, 43.773153100538686 ] } },
{ "type": "Feature", "properties": { "osm_id": "node\/1986168477", "type": "track", "name": null, "operator": null, "sport": "multi", "wheelchair": null, "opening_hours": null, "com_insee": "13056", "com_nom": "Martigues" }, "geometry": { "type": "Point", "coordinates": [ 5.0474298, 43.431125100541998 ] } },
{ "type": "Feature", "properties": { "osm_id": "node\/2023762030", "type": "sports_centre", "name": "Association ZimZam", "operator": null, "sport": "circus", "wheelchair": null, "opening_hours": null, "com_insee": "13055", "com_nom": "Marseille" }, "geometry": { "type": "Point", "coordinates": [ 5.3839052, 43.294488800541416 ] } },
{ "type": "Feature", "properties": { "osm_id": "node\/2089625963", "type": "sports_centre", "name": null, "operator": null, "sport": "swimming", "wheelchair": null, "opening_hours": null, "com_insee": "13002", "com_nom": "Allauch" }, "geometry": { "type": "Point", "coordinates": [ 5.4784767, 43.342601300541723 ] } },
{ "type": "Feature", "properties": { "osm_id": "node\/2261077584", "type": "pitch", "name": null, "operator": null, "sport": "equestrian", "wheelchair": null, "opening_hours": null, "com_insee": "13010", "com_nom": "Barbentane" }, "geometry": { "type": "Point", "coordinates": [ 4.787601, 43.91159270053538 ] } },
{ "type": "Feature", "properties": { "osm_id": "node\/2367523419", "type": "recreation_ground", "name": null, "operator": null, "sport": null, "wheelchair": null, "opening_hours": null, "com_insee": "13042", "com_nom": "Gémenos" }, "geometry": { "type": "Point", "coordinates": [ 5.6170968, 43.287692500541347 ] } },
{ "type": "Feature", "properties": { "osm_id": "node\/2666771862", "type": "sports_centre", "name": "Gymnase municipal", "operator": "Ville de Marseille", "sport": null, "wheelchair": null, "opening_hours": null, "com_insee": "13055", "com_nom": "Marseille" }, "geometry": { "type": "Point", "coordinates": [ 5.3691069, 43.290005000541363 ] } },
{ "type": "Feature", "properties": { "osm_id": "node\/2809099929", "type": "pitch", "name": "Sémaphore", "operator": null, "sport": "climbing", "wheelchair": null, "opening_hours": null, "com_insee": "13028", "com_nom": "La Ciotat" }, "geometry": { "type": "Point", "coordinates": [ 5.5712264, 43.178429000540056 ] } },
{ "type": "Feature", "properties": { "osm_id": "node\/2835699082", "type": "sports_centre", "name": "Centre équestre", "operator": null, "sport": null, "wheelchair": null, "opening_hours": null, "com_insee": "13056", "com_nom": "Martigues" }, "geometry": { "type": "Point", "coordinates": [ 5.046718, 43.43590170054199 ] } },
{ "type": "Feature", "properties": { "osm_id": "node\/2835707756", "type": "pitch", "name": "Acrobranches", "operator": null, "sport": "climbing", "wheelchair": null, "opening_hours": null, "com_insee": "13056", "com_nom": "Martigues" }, "geometry": { "type": "Point", "coordinates": [ 5.046154, 43.436905700541985 ] } },
{ "type": "Feature", "properties": { "osm_id": "node\/2863108628", "type": "sports_centre", "name": null, "operator": null, "sport": "canoe", "wheelchair": null, "opening_hours": null, "com_insee": "13077", "com_nom": "Port-de-Bouc" }, "geometry": { "type": "Point", "coordinates": [ 4.9738578, 43.419980400541974 ] } },
{ "type": "Feature", "properties": { "osm_id": "node\/2868327178", "type": "swimming_pool", "name": null, "operator": null, "sport": "swimming", "wheelchair": null, "opening_hours": null, "com_insee": "13039", "com_nom": "Fos-sur-Mer" }, "geometry": { "type": "Point", "coordinates": [ 4.9420333, 43.450697400541983 ] } },
{ "type": "Feature", "properties": { "osm_id": "node\/2893761498", "type": "sports_centre", "name": "Boulodrome municipal couvert", "operator": null, "sport": "boules", "wheelchair": null, "opening_hours": null, "com_insee": "13056", "com_nom": "Martigues" }, "geometry": { "type": "Point", "coordinates": [ 5.0395281, 43.40470540054195 ] } },
{ "type": "Feature", "properties": { "osm_id": "node\/2931119983", "type": "sports_centre", "name": "Atelier Arts et Forme", "operator": null, "sport": null, "wheelchair": null, "opening_hours": null, "com_insee": "13073", "com_nom": "Peypin" }, "geometry": { "type": "Point", "coordinates": [ 5.573828, 43.39106900054194 ] } },
{ "type": "Feature", "properties": { "osm_id": "node\/2938063181", "type": "pitch", "name": "Site d'Escalade de Bertagne", "operator": null, "sport": "climbing", "wheelchair": null, "opening_hours": null, "com_insee": "13042", "com_nom": "Gémenos" }, "geometry": { "type": "Point", "coordinates": [ 5.687859, 43.310644000541522 ] } },
{ "type": "Feature", "properties": { "osm_id": "node\/2941867495", "type": "track", "name": null, "operator": null, "sport": "karting", "wheelchair": null, "opening_hours": null, "com_insee": "13001", "com_nom": "Aix-en-Provence" }, "geometry": { "type": "Point", "coordinates": [ 5.378014, 43.487213000541928 ] } },
{ "type": "Feature", "properties": { "osm_id": "node\/2992239512", "type": "pitch", "name": null, "operator": null, "sport": "badminton", "wheelchair": null, "opening_hours": null, "com_insee": "13055", "com_nom": "Marseille" }, "geometry": { "type": "Point", "coordinates": [ 5.3942953, 43.262426300541101 ] } },
{ "type": "Feature", "properties": { "osm_id": "node\/2992239513", "type": "pitch", "name": null, "operator": null, "sport": "squash", "wheelchair": null, "opening_hours": null, "com_insee": "13055", "com_nom": "Marseille" }, "geometry": { "type": "Point", "coordinates": [ 5.3940789, 43.262714900541113 ] } },
{ "type": "Feature", "properties": { "osm_id": "node\/303994520", "type": "sports_centre", "name": "Club Musculation Aixois", "operator": null, "sport": null, "wheelchair": null, "opening_hours": null, "com_insee": "13001", "com_nom": "Aix-en-Provence" }, "geometry": { "type": "Point", "coordinates": [ 5.4565882, 43.525016000541783 ] } },
{ "type": "Feature", "properties": { "osm_id": "node\/303994524", "type": "sports_centre", "name": "Boxing Club Sextius - Salle Gaby Baumas", "operator": null, "sport": null, "wheelchair": null, "opening_hours": null, "com_insee": "13001", "com_nom": "Aix-en-Provence" }, "geometry": { "type": "Point", "coordinates": [ 5.4563995, 43.525002300541772 ] } },
{ "type": "Feature", "properties": { "osm_id": "node\/3052667122", "type": "sports_centre", "name": "Salle de tir à l'arc", "operator": null, "sport": "archery", "wheelchair": null, "opening_hours": null, "com_insee": "13097", "com_nom": "Saint-Martin-de-Crau" }, "geometry": { "type": "Point", "coordinates": [ 4.8199033, 43.638844800540816 ] } },
{ "type": "Feature", "properties": { "osm_id": "node\/3055125535", "type": "sports_centre", "name": null, "operator": null, "sport": null, "wheelchair": null, "opening_hours": null, "com_insee": "13028", "com_nom": "La Ciotat" }, "geometry": { "type": "Point", "coordinates": [ 5.6034915, 43.18848180054021 ] } },
{ "type": "Feature", "properties": { "osm_id": "node\/309754328", "type": "stadium", "name": "Stade Municipale Xavier Foubert", "operator": null, "sport": null, "wheelchair": null, "opening_hours": null, "com_insee": "13037", "com_nom": "La Fare-les-Oliviers" }, "geometry": { "type": "Point", "coordinates": [ 5.1902645, 43.550257400541625 ] } },
{ "type": "Feature", "properties": { "osm_id": "node\/332751508", "type": "pitch", "name": null, "operator": null, "sport": "skateboard", "wheelchair": null, "opening_hours": null, "com_insee": "13032", "com_nom": "Éguilles" }, "geometry": { "type": "Point", "coordinates": [ 5.3442878, 43.573585500541455 ] } },
{ "type": "Feature", "properties": { "osm_id": "node\/3432025479", "type": "horse_riding", "name": null, "operator": null, "sport": null, "wheelchair": null, "opening_hours": null, "com_insee": "13085", "com_nom": "Roquefort-la-Bédoule" }, "geometry": { "type": "Point", "coordinates": [ 5.6715669, 43.235454900540823 ] } },
{ "type": "Feature", "properties": { "osm_id": "node\/3469198196", "type": "sports_centre", "name": "Siege du Club Atlétique de Croix-Sainte", "operator": null, "sport": "soccer", "wheelchair": null, "opening_hours": null, "com_insee": "13056", "com_nom": "Martigues" }, "geometry": { "type": "Point", "coordinates": [ 5.0289683, 43.410215500541973 ] } },
{ "type": "Feature", "properties": { "osm_id": "node\/3556264044", "type": "sports_centre", "name": "salle de sport", "operator": null, "sport": null, "wheelchair": null, "opening_hours": null, "com_insee": "13056", "com_nom": "Martigues" }, "geometry": { "type": "Point", "coordinates": [ 5.0433996, 43.408365100541957 ] } },
{ "type": "Feature", "properties": { "osm_id": "node\/3620370142", "type": "swimming_pool", "name": null, "operator": null, "sport": "swimming", "wheelchair": null, "opening_hours": null, "com_insee": "13103", "com_nom": "Salon-de-Provence" }, "geometry": { "type": "Point", "coordinates": [ 5.10109, 43.649530000540686 ] } },
{ "type": "Feature", "properties": { "osm_id": "node\/3620378728", "type": "sports_centre", "name": "Gymnase de Lurian", "operator": null, "sport": "multi", "wheelchair": null, "opening_hours": null, "com_insee": "13103", "com_nom": "Salon-de-Provence" }, "geometry": { "type": "Point", "coordinates": [ 5.1051154, 43.625301700540973 ] } },
{ "type": "Feature", "properties": { "osm_id": "node\/3623130018", "type": "pitch", "name": "Gymnase Agnel", "operator": null, "sport": "multi", "wheelchair": null, "opening_hours": null, "com_insee": "13103", "com_nom": "Salon-de-Provence" }, "geometry": { "type": "Point", "coordinates": [ 5.1052902, 43.619931000541015 ] } },
{ "type": "Feature", "properties": { "osm_id": "node\/3623130034", "type": "swimming_pool", "name": null, "operator": null, "sport": "swimming", "wheelchair": null, "opening_hours": null, "com_insee": "13103", "com_nom": "Salon-de-Provence" }, "geometry": { "type": "Point", "coordinates": [ 5.10546, 43.61931000054102 ] } },
{ "type": "Feature", "properties": { "osm_id": "node\/3623130073", "type": "pitch", "name": null, "operator": null, "sport": "fencing", "wheelchair": null, "opening_hours": null, "com_insee": "13103", "com_nom": "Salon-de-Provence" }, "geometry": { "type": "Point", "coordinates": [ 5.1053054, 43.619869100541031 ] } },
{ "type": "Feature", "properties": { "osm_id": "node\/3623130080", "type": "pitch", "name": null, "operator": null, "sport": "fencing", "wheelchair": null, "opening_hours": null, "com_insee": "13103", "com_nom": "Salon-de-Provence" }, "geometry": { "type": "Point", "coordinates": [ 5.1051405, 43.619912100541022 ] } },
{ "type": "Feature", "properties": { "osm_id": "node\/3623219051", "type": "sports_centre", "name": "Association Sportive du Tennis de la Barben", "operator": null, "sport": "tennis", "wheelchair": null, "opening_hours": null, "com_insee": "13009", "com_nom": "La Barben" }, "geometry": { "type": "Point", "coordinates": [ 5.1764714, 43.629796100540915 ] } },
{ "type": "Feature", "properties": { "osm_id": "node\/3623286428", "type": "pitch", "name": "Gymnase", "operator": null, "sport": "multi", "wheelchair": null, "opening_hours": null, "com_insee": "13118", "com_nom": "Coudoux" }, "geometry": { "type": "Point", "coordinates": [ 5.2544694, 43.547142000541641 ] } },
{ "type": "Feature", "properties": { "osm_id": "node\/3623350980", "type": "sports_centre", "name": "Stade Roger Martin", "operator": null, "sport": null, "wheelchair": null, "opening_hours": null, "com_insee": "13014", "com_nom": "Berre-l'Étang" }, "geometry": { "type": "Point", "coordinates": [ 5.1723985, 43.487135300541922 ] } },
{ "type": "Feature", "properties": { "osm_id": "node\/3623351348", "type": "pitch", "name": null, "operator": null, "sport": "multi", "wheelchair": null, "opening_hours": null, "com_insee": "13014", "com_nom": "Berre-l'Étang" }, "geometry": { "type": "Point", "coordinates": [ 5.1714521, 43.48849380054191 ] } },
{ "type": "Feature", "properties": { "osm_id": "node\/3623358871", "type": "sports_centre", "name": "Stade de Gordes", "operator": null, "sport": null, "wheelchair": null, "opening_hours": null, "com_insee": "13014", "com_nom": "Berre-l'Étang" }, "geometry": { "type": "Point", "coordinates": [ 5.1833515, 43.483668100541927 ] } },
{ "type": "Feature", "properties": { "osm_id": "node\/3623386509", "type": "sports_centre", "name": "Aire de Loisir des Barjaquets", "operator": null, "sport": null, "wheelchair": null, "opening_hours": null, "com_insee": "13081", "com_nom": "Rognac" }, "geometry": { "type": "Point", "coordinates": [ 5.2153768, 43.506964200541852 ] } },
{ "type": "Feature", "properties": { "osm_id": "node\/3623386510", "type": "sports_centre", "name": "Complexe Sportif Jean Monnet", "operator": null, "sport": null, "wheelchair": null, "opening_hours": null, "com_insee": "13081", "com_nom": "Rognac" }, "geometry": { "type": "Point", "coordinates": [ 5.2207851, 43.49232680054191 ] } },
{ "type": "Feature", "properties": { "osm_id": "node\/3623386514", "type": "pitch", "name": null, "operator": null, "sport": "shooting", "wheelchair": null, "opening_hours": null, "com_insee": "13081", "com_nom": "Rognac" }, "geometry": { "type": "Point", "coordinates": [ 5.2287442, 43.487683000541907 ] } },
{ "type": "Feature", "properties": { "osm_id": "node\/3623401408", "type": "pitch", "name": null, "operator": null, "sport": "archery", "wheelchair": null, "opening_hours": null, "com_insee": "13114", "com_nom": "Ventabren" }, "geometry": { "type": "Point", "coordinates": [ 5.2960366, 43.535796700541717 ] } },
{ "type": "Feature", "properties": { "osm_id": "node\/3649202517", "type": "pitch", "name": "Parc des Sports Maurice Daugé", "operator": null, "sport": null, "wheelchair": null, "opening_hours": null, "com_insee": "13113", "com_nom": "Venelles" }, "geometry": { "type": "Point", "coordinates": [ 5.493118, 43.595351300541267 ] } },
{ "type": "Feature", "properties": { "osm_id": "node\/3748237973", "type": "pitch", "name": "Centre Équestre Saint-Hubert", "operator": null, "sport": "equestrian", "wheelchair": null, "opening_hours": null, "com_insee": "13110", "com_nom": "Trets" }, "geometry": { "type": "Point", "coordinates": [ 5.7216117, 43.468946400541974 ] } },
{ "type": "Feature", "properties": { "osm_id": "node\/3756415480", "type": "pitch", "name": null, "operator": null, "sport": "volleyball", "wheelchair": null, "opening_hours": null, "com_insee": "13015", "com_nom": "Bouc-Bel-Air" }, "geometry": { "type": "Point", "coordinates": [ 5.3969481, 43.454388200541985 ] } },
{ "type": "Feature", "properties": { "osm_id": "node\/3756879742", "type": "pitch", "name": null, "operator": null, "sport": null, "wheelchair": null, "opening_hours": null, "com_insee": "13015", "com_nom": "Bouc-Bel-Air" }, "geometry": { "type": "Point", "coordinates": [ 5.3968381, 43.454281100541991 ] } },
{ "type": "Feature", "properties": { "osm_id": "node\/3757869289", "type": "pitch", "name": "Club Hippique Aix-Marseille", "operator": null, "sport": "equestrian", "wheelchair": null, "opening_hours": null, "com_insee": "13001", "com_nom": "Aix-en-Provence" }, "geometry": { "type": "Point", "coordinates": [ 5.4290832, 43.51057340054183 ] } },
{ "type": "Feature", "properties": { "osm_id": "node\/3790779217", "type": "sports_centre", "name": "Grimper", "operator": null, "sport": "climbing", "wheelchair": null, "opening_hours": null, "com_insee": "13055", "com_nom": "Marseille" }, "geometry": { "type": "Point", "coordinates": [ 5.4854168, 43.286517500541329 ] } },
{ "type": "Feature", "properties": { "osm_id": "node\/3814559036", "type": "sports_centre", "name": "Altissimo", "operator": null, "sport": "climbing", "wheelchair": null, "opening_hours": "Mo,Fr 12:00-22:00; Tu-Th 12:00-22:30; Sa,Su 14:00-20:00", "com_insee": "13055", "com_nom": "Marseille" }, "geometry": { "type": "Point", "coordinates": [ 5.3731517, 43.333907100541673 ] } },
{ "type": "Feature", "properties": { "osm_id": "node\/3825287655", "type": "sports_centre", "name": "Base de Loisir de la Garenne", "operator": null, "sport": null, "wheelchair": null, "opening_hours": null, "com_insee": "13072", "com_nom": "Peynier" }, "geometry": { "type": "Point", "coordinates": [ 5.6334249, 43.447195400541979 ] } },
{ "type": "Feature", "properties": { "osm_id": "node\/3825429088", "type": "pitch", "name": null, "operator": null, "sport": "boules", "wheelchair": null, "opening_hours": null, "com_insee": "13025", "com_nom": "Châteauneuf-le-Rouge" }, "geometry": { "type": "Point", "coordinates": [ 5.5683046, 43.488912500541922 ] } },
{ "type": "Feature", "properties": { "osm_id": "node\/3830505485", "type": "pitch", "name": "Mur d'escalade", "operator": null, "sport": "climbing", "wheelchair": null, "opening_hours": null, "com_insee": "13097", "com_nom": "Saint-Martin-de-Crau" }, "geometry": { "type": "Point", "coordinates": [ 4.7830433, 43.634547600540863 ] } },
{ "type": "Feature", "properties": { "osm_id": "node\/3835898454", "type": "sports_centre", "name": "salle de gymnastique du Bolmon", "operator": null, "sport": "gymnastics", "wheelchair": null, "opening_hours": null, "com_insee": "13054", "com_nom": "Marignane" }, "geometry": { "type": "Point", "coordinates": [ 5.1991341, 43.414446300541982 ] } },
{ "type": "Feature", "properties": { "osm_id": "node\/3835901979", "type": "sports_centre", "name": "stade du Bolmon", "operator": null, "sport": "athletics", "wheelchair": null, "opening_hours": null, "com_insee": "13054", "com_nom": "Marignane" }, "geometry": { "type": "Point", "coordinates": [ 5.2003657, 43.415063900541973 ] } },
{ "type": "Feature", "properties": { "osm_id": "node\/3835970603", "type": "sports_centre", "name": "Keep cool", "operator": null, "sport": "fitness", "wheelchair": "yes", "opening_hours": null, "com_insee": "13054", "com_nom": "Marignane" }, "geometry": { "type": "Point", "coordinates": [ 5.2265374, 43.417502500541978 ] } },
{ "type": "Feature", "properties": { "osm_id": "node\/3924373739", "type": "sports_centre", "name": "L'Argos", "operator": null, "sport": null, "wheelchair": null, "opening_hours": null, "com_insee": "13117", "com_nom": "Vitrolles" }, "geometry": { "type": "Point", "coordinates": [ 5.282442, 43.425295200541996 ] } },
{ "type": "Feature", "properties": { "osm_id": "node\/3961211476", "type": "sports_centre", "name": "Gymnase Maurice Amalbert", "operator": null, "sport": "volleyball;handball;basketball;badmington", "wheelchair": null, "opening_hours": null, "com_insee": "13046", "com_nom": "Gréasque" }, "geometry": { "type": "Point", "coordinates": [ 5.5419763, 43.432531500541991 ] } },
{ "type": "Feature", "properties": { "osm_id": "node\/3992084759", "type": "sports_centre", "name": "Billard Club", "operator": null, "sport": "billiards", "wheelchair": null, "opening_hours": null, "com_insee": "13055", "com_nom": "Marseille" }, "geometry": { "type": "Point", "coordinates": [ 5.4365364, 43.284293300541307 ] } },
{ "type": "Feature", "properties": { "osm_id": "node\/3992084765", "type": "sports_centre", "name": "Full Karaté Académie", "operator": null, "sport": "karate", "wheelchair": null, "opening_hours": null, "com_insee": "13055", "com_nom": "Marseille" }, "geometry": { "type": "Point", "coordinates": [ 5.4363771, 43.284240200541312 ] } },
{ "type": "Feature", "properties": { "osm_id": "node\/4000889770", "type": "sports_centre", "name": null, "operator": null, "sport": null, "wheelchair": null, "opening_hours": null, "com_insee": "13084", "com_nom": "La Roque-d'Anthéron" }, "geometry": { "type": "Point", "coordinates": [ 5.3109477, 43.711287500539804 ] } },
{ "type": "Feature", "properties": { "osm_id": "node\/4009496808", "type": "sports_centre", "name": "Salle de Boxe", "operator": null, "sport": "boxe", "wheelchair": null, "opening_hours": null, "com_insee": "13084", "com_nom": "La Roque-d'Anthéron" }, "geometry": { "type": "Point", "coordinates": [ 5.3090678, 43.717668800539698 ] } },
{ "type": "Feature", "properties": { "osm_id": "node\/4112473797", "type": "pitch", "name": null, "operator": null, "sport": "basketball", "wheelchair": null, "opening_hours": null, "com_insee": "13001", "com_nom": "Aix-en-Provence" }, "geometry": { "type": "Point", "coordinates": [ 5.423138, 43.577669100541428 ] } },
{ "type": "Feature", "properties": { "osm_id": "node\/4112473810", "type": "pitch", "name": null, "operator": null, "sport": "handball", "wheelchair": null, "opening_hours": null, "com_insee": "13001", "com_nom": "Aix-en-Provence" }, "geometry": { "type": "Point", "coordinates": [ 5.41361, 43.579660000541402 ] } },
{ "type": "Feature", "properties": { "osm_id": "node\/4138967434", "type": "sports_centre", "name": "Salle des sports", "operator": null, "sport": null, "wheelchair": null, "opening_hours": null, "com_insee": "13059", "com_nom": "Meyrargues" }, "geometry": { "type": "Point", "coordinates": [ 5.5233605, 43.633365000540884 ] } },
{ "type": "Feature", "properties": { "osm_id": "node\/4155336598", "type": "pitch", "name": "Espace Didier Deschamps", "operator": null, "sport": null, "wheelchair": null, "opening_hours": null, "com_insee": "13014", "com_nom": "Berre-l'Étang" }, "geometry": { "type": "Point", "coordinates": [ 5.1649943, 43.473082000541957 ] } },
{ "type": "Feature", "properties": { "osm_id": "node\/4262898932", "type": "pitch", "name": "Go5 Foot Indoor", "operator": null, "sport": "soccer", "wheelchair": null, "opening_hours": null, "com_insee": "13055", "com_nom": "Marseille" }, "geometry": { "type": "Point", "coordinates": [ 5.408514, 43.342533100541729 ] } },
{ "type": "Feature", "properties": { "osm_id": "node\/4262898933", "type": "sports_centre", "name": "Massilia Fitness", "operator": null, "sport": "fitness", "wheelchair": null, "opening_hours": null, "com_insee": "13055", "com_nom": "Marseille" }, "geometry": { "type": "Point", "coordinates": [ 5.4085015, 43.342343600541724 ] } },
{ "type": "Feature", "properties": { "osm_id": "node\/4283828789", "type": "sports_centre", "name": "PEIPS Spa", "operator": null, "sport": "swimming", "wheelchair": null, "opening_hours": "Mo-Fr 09:00-17:00", "com_insee": "13028", "com_nom": "La Ciotat" }, "geometry": { "type": "Point", "coordinates": [ 5.6025704, 43.204217700540433 ] } },
{ "type": "Feature", "properties": { "osm_id": "node\/4354754779", "type": "pitch", "name": null, "operator": null, "sport": "multi", "wheelchair": null, "opening_hours": null, "com_insee": "13028", "com_nom": "La Ciotat" }, "geometry": { "type": "Point", "coordinates": [ 5.602814, 43.172862000539986 ] } },
{ "type": "Feature", "properties": { "osm_id": "node\/4354754780", "type": "track", "name": null, "operator": null, "sport": "athletics", "wheelchair": null, "opening_hours": null, "com_insee": "13028", "com_nom": "La Ciotat" }, "geometry": { "type": "Point", "coordinates": [ 5.602936, 43.172862000539986 ] } },
{ "type": "Feature", "properties": { "osm_id": "node\/4354754782", "type": "pitch", "name": null, "operator": null, "sport": "squash", "wheelchair": null, "opening_hours": null, "com_insee": "13028", "com_nom": "La Ciotat" }, "geometry": { "type": "Point", "coordinates": [ 5.6041, 43.175800000540029 ] } },
{ "type": "Feature", "properties": { "osm_id": "node\/4463345816", "type": "sports_centre", "name": "La Mesón", "operator": null, "sport": null, "wheelchair": "no", "opening_hours": null, "com_insee": "13055", "com_nom": "Marseille" }, "geometry": { "type": "Point", "coordinates": [ 5.3878357, 43.300304400541457 ] } },
{ "type": "Feature", "properties": { "osm_id": "node\/4476394904", "type": "pitch", "name": null, "operator": null, "sport": "multi", "wheelchair": null, "opening_hours": null, "com_insee": "13055", "com_nom": "Marseille" }, "geometry": { "type": "Point", "coordinates": [ 5.3505262, 43.340651900541722 ] } },
{ "type": "Feature", "properties": { "osm_id": "node\/4530208489", "type": "pitch", "name": "Stand de tir", "operator": null, "sport": "shooting_range", "wheelchair": null, "opening_hours": null, "com_insee": "13055", "com_nom": "Marseille" }, "geometry": { "type": "Point", "coordinates": [ 5.3174496, 43.369771700541861 ] } },
{ "type": "Feature", "properties": { "osm_id": "node\/4547008432", "type": "sports_centre", "name": "Voile Impulsion", "operator": null, "sport": "sailing;boat", "wheelchair": null, "opening_hours": null, "com_insee": "13055", "com_nom": "Marseille" }, "geometry": { "type": "Point", "coordinates": [ 5.3155549, 43.36037870054183 ] } },
{ "type": "Feature", "properties": { "osm_id": "node\/4565925168", "type": "pitch", "name": null, "operator": null, "sport": "basketball", "wheelchair": null, "opening_hours": null, "com_insee": "13005", "com_nom": "Aubagne" }, "geometry": { "type": "Point", "coordinates": [ 5.5821956, 43.295872100541402 ] } },
{ "type": "Feature", "properties": { "osm_id": "node\/4585538161", "type": "sports_centre", "name": "Boite à Grimpe", "operator": null, "sport": "climbing", "wheelchair": null, "opening_hours": null, "com_insee": "13055", "com_nom": "Marseille" }, "geometry": { "type": "Point", "coordinates": [ 5.3912607, 43.262250300541112 ] } },
{ "type": "Feature", "properties": { "osm_id": "node\/4585777176", "type": "pitch", "name": null, "operator": null, "sport": "skateboard", "wheelchair": null, "opening_hours": null, "com_insee": "13055", "com_nom": "Marseille" }, "geometry": { "type": "Point", "coordinates": [ 5.3745828, 43.251938000541003 ] } },
{ "type": "Feature", "properties": { "osm_id": "node\/4633304873", "type": "pitch", "name": null, "operator": null, "sport": null, "wheelchair": null, "opening_hours": null, "com_insee": "13041", "com_nom": "Gardanne" }, "geometry": { "type": "Point", "coordinates": [ 5.4562836, 43.439724300541982 ] } },
{ "type": "Feature", "properties": { "osm_id": "node\/4697075559", "type": "pitch", "name": "Boulodrome", "operator": null, "sport": "boules", "wheelchair": null, "opening_hours": null, "com_insee": "13055", "com_nom": "Marseille" }, "geometry": { "type": "Point", "coordinates": [ 5.4040146, 43.307577300541496 ] } },
{ "type": "Feature", "properties": { "osm_id": "node\/4698793387", "type": "recreation_ground", "name": "Pastré Aventure", "operator": null, "sport": "climbing_adventure", "wheelchair": null, "opening_hours": null, "com_insee": "13055", "com_nom": "Marseille" }, "geometry": { "type": "Point", "coordinates": [ 5.3680544, 43.239396800540867 ] } },
{ "type": "Feature", "properties": { "osm_id": "node\/4789890566", "type": "pitch", "name": null, "operator": null, "sport": "table_tennis", "wheelchair": null, "opening_hours": null, "com_insee": "13055", "com_nom": "Marseille" }, "geometry": { "type": "Point", "coordinates": [ 5.3068579, 43.361815800541819 ] } },
{ "type": "Feature", "properties": { "osm_id": "node\/4931027845", "type": "horse_riding", "name": "Les Cavaliers de la Main Douce", "operator": null, "sport": null, "wheelchair": null, "opening_hours": null, "com_insee": "13056", "com_nom": "Martigues" }, "geometry": { "type": "Point", "coordinates": [ 5.0986258, 43.357279000541801 ] } },
{ "type": "Feature", "properties": { "osm_id": "node\/5020858550", "type": "pitch", "name": null, "operator": null, "sport": "basketball", "wheelchair": null, "opening_hours": null, "com_insee": "13028", "com_nom": "La Ciotat" }, "geometry": { "type": "Point", "coordinates": [ 5.6066941, 43.189986900540241 ] } },
{ "type": "Feature", "properties": { "osm_id": "node\/5027166575", "type": "sports_centre", "name": "Complexe Robert Mauget", "operator": null, "sport": null, "wheelchair": null, "opening_hours": null, "com_insee": "13004", "com_nom": "Arles" }, "geometry": { "type": "Point", "coordinates": [ 4.6399292, 43.679456300540281 ] } },
{ "type": "Feature", "properties": { "osm_id": "node\/5139621757", "type": "sports_centre", "name": "Vita Liberte", "operator": null, "sport": null, "wheelchair": null, "opening_hours": null, "com_insee": "13055", "com_nom": "Marseille" }, "geometry": { "type": "Point", "coordinates": [ 5.4172526, 43.248633600540963 ] } },
{ "type": "Feature", "properties": { "osm_id": "node\/5139621777", "type": "sports_centre", "name": "E-danses Ecole de Danse", "operator": null, "sport": null, "wheelchair": null, "opening_hours": null, "com_insee": "13055", "com_nom": "Marseille" }, "geometry": { "type": "Point", "coordinates": [ 5.4174324, 43.249017100540975 ] } },
{ "type": "Feature", "properties": { "osm_id": "node\/5257846437", "type": "sports_centre", "name": "House Fitness", "operator": null, "sport": "fitness", "wheelchair": null, "opening_hours": null, "com_insee": "13055", "com_nom": "Marseille" }, "geometry": { "type": "Point", "coordinates": [ 5.4358923, 43.33650360054169 ] } },
{ "type": "Feature", "properties": { "osm_id": "node\/5269601782", "type": "pitch", "name": null, "operator": null, "sport": null, "wheelchair": null, "opening_hours": null, "com_insee": "13071", "com_nom": "Les Pennes-Mirabeau" }, "geometry": { "type": "Point", "coordinates": [ 5.3282798, 43.3800105005419 ] } },
{ "type": "Feature", "properties": { "osm_id": "node\/5271960615", "type": "pitch", "name": null, "operator": null, "sport": "table_tennis", "wheelchair": null, "opening_hours": null, "com_insee": "13056", "com_nom": "Martigues" }, "geometry": { "type": "Point", "coordinates": [ 5.042975, 43.333609200541673 ] } },
{ "type": "Feature", "properties": { "osm_id": "node\/5312282192", "type": "pitch", "name": null, "operator": null, "sport": "table_tennis", "wheelchair": null, "opening_hours": null, "com_insee": "13056", "com_nom": "Martigues" }, "geometry": { "type": "Point", "coordinates": [ 5.0543067, 43.335473100541691 ] } },
{ "type": "Feature", "properties": { "osm_id": "node\/5349482396", "type": "sports_centre", "name": "Gymnase Marcel-Cerdan", "operator": null, "sport": "basketball;gymnastics;multi", "wheelchair": null, "opening_hours": "\"Selon activités des associations\"", "com_insee": "13004", "com_nom": "Arles" }, "geometry": { "type": "Point", "coordinates": [ 4.7236245, 43.645972000540723 ] } },
{ "type": "Feature", "properties": { "osm_id": "node\/5409847290", "type": "sports_centre", "name": null, "operator": null, "sport": "boxing", "wheelchair": null, "opening_hours": null, "com_insee": "13055", "com_nom": "Marseille" }, "geometry": { "type": "Point", "coordinates": [ 5.3827462, 43.276636600541245 ] } },
{ "type": "Feature", "properties": { "osm_id": "node\/5582118224", "type": "pitch", "name": null, "operator": null, "sport": "multi", "wheelchair": null, "opening_hours": null, "com_insee": "13056", "com_nom": "Martigues" }, "geometry": { "type": "Point", "coordinates": [ 5.0512, 43.416100000541974 ] } },
{ "type": "Feature", "properties": { "osm_id": "node\/5598498154", "type": "pitch", "name": null, "operator": null, "sport": "equestrian", "wheelchair": null, "opening_hours": null, "com_insee": "13098", "com_nom": "Saint-Mitre-les-Remparts" }, "geometry": { "type": "Point", "coordinates": [ 5.0378575, 43.444057000541989 ] } },
{ "type": "Feature", "properties": { "osm_id": "node\/5598498156", "type": "pitch", "name": null, "operator": null, "sport": "equestrian", "wheelchair": null, "opening_hours": null, "com_insee": "13098", "com_nom": "Saint-Mitre-les-Remparts" }, "geometry": { "type": "Point", "coordinates": [ 5.0371683, 43.444035100541996 ] } },
{ "type": "Feature", "properties": { "osm_id": "node\/5630041702", "type": "sports_centre", "name": "Palais des sports", "operator": null, "sport": "handball", "wheelchair": null, "opening_hours": null, "com_insee": "13056", "com_nom": "Martigues" }, "geometry": { "type": "Point", "coordinates": [ 5.0381391, 43.405066700541973 ] } },
{ "type": "Feature", "properties": { "osm_id": "node\/5828005072", "type": "horse_riding", "name": null, "operator": null, "sport": null, "wheelchair": null, "opening_hours": null, "com_insee": "13056", "com_nom": "Martigues" }, "geometry": { "type": "Point", "coordinates": [ 5.0483227, 43.391348100541933 ] } },
{ "type": "Feature", "properties": { "osm_id": "node\/5973245511", "type": "fitness_station", "name": null, "operator": null, "sport": "fitness", "wheelchair": null, "opening_hours": "24\/7", "com_insee": "13055", "com_nom": "Marseille" }, "geometry": { "type": "Point", "coordinates": [ 5.3739465, 43.260395900541084 ] } },
{ "type": "Feature", "properties": { "osm_id": "node\/5977908529", "type": "pitch", "name": "Le Royaume des Arbres", "operator": null, "sport": "climbing_adventure", "wheelchair": null, "opening_hours": "Mo-Su 10:00-18:00", "com_insee": "13024", "com_nom": "Charleval" }, "geometry": { "type": "Point", "coordinates": [ 5.2486946, 43.713829300539764 ] } },
{ "type": "Feature", "properties": { "osm_id": "node\/6243985217", "type": "fitness_station", "name": null, "operator": null, "sport": null, "wheelchair": null, "opening_hours": null, "com_insee": "13041", "com_nom": "Gardanne" }, "geometry": { "type": "Point", "coordinates": [ 5.4525688, 43.470028800541968 ] } },
{ "type": "Feature", "properties": { "osm_id": "node\/6243985239", "type": "fitness_station", "name": null, "operator": null, "sport": null, "wheelchair": null, "opening_hours": null, "com_insee": "13041", "com_nom": "Gardanne" }, "geometry": { "type": "Point", "coordinates": [ 5.4510822, 43.46982100054197 ] } },
{ "type": "Feature", "properties": { "osm_id": "node\/6243985240", "type": "fitness_station", "name": null, "operator": null, "sport": null, "wheelchair": null, "opening_hours": null, "com_insee": "13041", "com_nom": "Gardanne" }, "geometry": { "type": "Point", "coordinates": [ 5.4508985, 43.46978150054197 ] } },
{ "type": "Feature", "properties": { "osm_id": "node\/6243985242", "type": "fitness_station", "name": null, "operator": null, "sport": null, "wheelchair": null, "opening_hours": null, "com_insee": "13041", "com_nom": "Gardanne" }, "geometry": { "type": "Point", "coordinates": [ 5.4498665, 43.469775700541952 ] } },
{ "type": "Feature", "properties": { "osm_id": "node\/6243985243", "type": "fitness_station", "name": null, "operator": null, "sport": null, "wheelchair": null, "opening_hours": null, "com_insee": "13041", "com_nom": "Gardanne" }, "geometry": { "type": "Point", "coordinates": [ 5.4474954, 43.471357300541968 ] } },
{ "type": "Feature", "properties": { "osm_id": "node\/6243985244", "type": "fitness_station", "name": null, "operator": null, "sport": null, "wheelchair": null, "opening_hours": null, "com_insee": "13041", "com_nom": "Gardanne" }, "geometry": { "type": "Point", "coordinates": [ 5.4471923, 43.471591800541958 ] } },
{ "type": "Feature", "properties": { "osm_id": "node\/6270056573", "type": "pitch", "name": null, "operator": null, "sport": "equestrian", "wheelchair": null, "opening_hours": null, "com_insee": "13004", "com_nom": "Arles" }, "geometry": { "type": "Point", "coordinates": [ 4.7488525, 43.629479900540915 ] } },
{ "type": "Feature", "properties": { "osm_id": "node\/6343079825", "type": "pitch", "name": null, "operator": null, "sport": "skateboard", "wheelchair": null, "opening_hours": null, "com_insee": "13056", "com_nom": "Martigues" }, "geometry": { "type": "Point", "coordinates": [ 5.0509629, 43.428301500542005 ] } },
{ "type": "Feature", "properties": { "osm_id": "node\/6449883863", "type": "pitch", "name": null, "operator": null, "sport": "archery", "wheelchair": null, "opening_hours": null, "com_insee": "13055", "com_nom": "Marseille" }, "geometry": { "type": "Point", "coordinates": [ 5.4677505, 43.32177410054161 ] } },
{ "type": "Feature", "properties": { "osm_id": "node\/6449883864", "type": "pitch", "name": null, "operator": null, "sport": "shooting", "wheelchair": null, "opening_hours": null, "com_insee": "13055", "com_nom": "Marseille" }, "geometry": { "type": "Point", "coordinates": [ 5.4678108, 43.321002200541606 ] } },
{ "type": "Feature", "properties": { "osm_id": "node\/6511954174", "type": "pitch", "name": null, "operator": null, "sport": "table_tennis", "wheelchair": null, "opening_hours": null, "com_insee": "13055", "com_nom": "Marseille" }, "geometry": { "type": "Point", "coordinates": [ 5.4439006, 43.229809300540751 ] } },
{ "type": "Feature", "properties": { "osm_id": "node\/6521007897", "type": "pitch", "name": null, "operator": null, "sport": "equestrian", "wheelchair": null, "opening_hours": null, "com_insee": "13055", "com_nom": "Marseille" }, "geometry": { "type": "Point", "coordinates": [ 5.444599, 43.305982000541491 ] } },
{ "type": "Feature", "properties": { "osm_id": "node\/6540048487", "type": "sports_centre", "name": "Piscine Coubertin", "operator": null, "sport": "swimming", "wheelchair": null, "opening_hours": null, "com_insee": "13027", "com_nom": "Châteaurenard" }, "geometry": { "type": "Point", "coordinates": [ 4.8694084, 43.882963900536147 ] } },
{ "type": "Feature", "properties": { "osm_id": "node\/6555123751", "type": "horse_riding", "name": "Centre Equestre Poney Club des Costieres", "operator": null, "sport": null, "wheelchair": null, "opening_hours": null, "com_insee": "13089", "com_nom": "Saint-Andiol" }, "geometry": { "type": "Point", "coordinates": [ 4.9202451, 43.818412300537737 ] } },
{ "type": "Feature", "properties": { "osm_id": "node\/6564890985", "type": "fitness_station", "name": null, "operator": null, "sport": "fitness", "wheelchair": null, "opening_hours": null, "com_insee": "13055", "com_nom": "Marseille" }, "geometry": { "type": "Point", "coordinates": [ 5.3918312, 43.282083300541288 ] } },
{ "type": "Feature", "properties": { "osm_id": "node\/6564890986", "type": "fitness_station", "name": null, "operator": null, "sport": "fitness", "wheelchair": null, "opening_hours": null, "com_insee": "13055", "com_nom": "Marseille" }, "geometry": { "type": "Point", "coordinates": [ 5.3918667, 43.282062300541305 ] } },
{ "type": "Feature", "properties": { "osm_id": "node\/6564890987", "type": "fitness_station", "name": null, "operator": null, "sport": "fitness", "wheelchair": null, "opening_hours": null, "com_insee": "13055", "com_nom": "Marseille" }, "geometry": { "type": "Point", "coordinates": [ 5.3918902, 43.282036400541315 ] } },
{ "type": "Feature", "properties": { "osm_id": "node\/6564890988", "type": "fitness_station", "name": null, "operator": null, "sport": "fitness", "wheelchair": null, "opening_hours": null, "com_insee": "13055", "com_nom": "Marseille" }, "geometry": { "type": "Point", "coordinates": [ 5.3917366, 43.282071400541298 ] } },
{ "type": "Feature", "properties": { "osm_id": "node\/6564890989", "type": "fitness_station", "name": null, "operator": null, "sport": "fitness", "wheelchair": null, "opening_hours": null, "com_insee": "13055", "com_nom": "Marseille" }, "geometry": { "type": "Point", "coordinates": [ 5.3918838, 43.281982100541306 ] } },
{ "type": "Feature", "properties": { "osm_id": "node\/6602962026", "type": "swimming_pool", "name": null, "operator": null, "sport": "swimming", "wheelchair": null, "opening_hours": null, "com_insee": "13055", "com_nom": "Marseille" }, "geometry": { "type": "Point", "coordinates": [ 5.36322, 43.374220000541875 ] } },
{ "type": "Feature", "properties": { "osm_id": "node\/6611589722", "type": "fitness_station", "name": null, "operator": null, "sport": "fitness", "wheelchair": null, "opening_hours": null, "com_insee": "13049", "com_nom": "Lamanon" }, "geometry": { "type": "Point", "coordinates": [ 5.0827904, 43.698751200539988 ] } },
{ "type": "Feature", "properties": { "osm_id": "node\/6617270444", "type": "pitch", "name": null, "operator": null, "sport": "handball", "wheelchair": null, "opening_hours": null, "com_insee": "13055", "com_nom": "Marseille" }, "geometry": { "type": "Point", "coordinates": [ 5.45022, 43.315150000541564 ] } },
{ "type": "Feature", "properties": { "osm_id": "node\/6715288286", "type": "golf_course", "name": "Golf Du Domaine De Manville", "operator": null, "sport": null, "wheelchair": null, "opening_hours": null, "com_insee": "13011", "com_nom": "Les Baux-de-Provence" }, "geometry": { "type": "Point", "coordinates": [ 4.8012254, 43.733102600539439 ] } },
{ "type": "Feature", "properties": { "osm_id": "node\/6900429424", "type": "sports_centre", "name": "Gymnase des Bressons", "operator": null, "sport": null, "wheelchair": null, "opening_hours": null, "com_insee": "13103", "com_nom": "Salon-de-Provence" }, "geometry": { "type": "Point", "coordinates": [ 5.0896888, 43.644892200540738 ] } },
{ "type": "Feature", "properties": { "osm_id": "node\/6912375921", "type": "sports_centre", "name": "Elit Form", "operator": null, "sport": "fitness", "wheelchair": null, "opening_hours": null, "com_insee": "13055", "com_nom": "Marseille" }, "geometry": { "type": "Point", "coordinates": [ 5.3805086, 43.319295400541591 ] } },
{ "type": "Feature", "properties": { "osm_id": "node\/696719581", "type": "pitch", "name": "Boulodrome les Trois Mages", "operator": null, "sport": "boules", "wheelchair": null, "opening_hours": null, "com_insee": "13055", "com_nom": "Marseille" }, "geometry": { "type": "Point", "coordinates": [ 5.383231, 43.295505700541426 ] } },
{ "type": "Feature", "properties": { "osm_id": "node\/7021360082", "type": "pitch", "name": null, "operator": null, "sport": "multi", "wheelchair": null, "opening_hours": null, "com_insee": "13055", "com_nom": "Marseille" }, "geometry": { "type": "Point", "coordinates": [ 5.379311, 43.347114800541753 ] } },
{ "type": "Feature", "properties": { "osm_id": "node\/7040373838", "type": "pitch", "name": null, "operator": null, "sport": "boules", "wheelchair": null, "opening_hours": null, "com_insee": "13001", "com_nom": "Aix-en-Provence" }, "geometry": { "type": "Point", "coordinates": [ 5.4643136, 43.520705900541806 ] } },
{ "type": "Feature", "properties": { "osm_id": "node\/7097230769", "type": "sports_centre", "name": null, "operator": null, "sport": "climbing", "wheelchair": null, "opening_hours": null, "com_insee": "13055", "com_nom": "Marseille" }, "geometry": { "type": "Point", "coordinates": [ 5.4781288, 43.278243200541269 ] } },
{ "type": "Feature", "properties": { "osm_id": "node\/7097271343", "type": "sports_centre", "name": null, "operator": null, "sport": "climbing", "wheelchair": null, "opening_hours": null, "com_insee": "13055", "com_nom": "Marseille" }, "geometry": { "type": "Point", "coordinates": [ 5.444499, 43.27121440054119 ] } },
{ "type": "Feature", "properties": { "osm_id": "node\/7124387470", "type": "horse_riding", "name": "Ranch du Garlaban", "operator": null, "sport": null, "wheelchair": null, "opening_hours": null, "com_insee": "13002", "com_nom": "Allauch" }, "geometry": { "type": "Point", "coordinates": [ 5.4892891, 43.339879900541717 ] } },
{ "type": "Feature", "properties": { "osm_id": "node\/7195071405", "type": "horse_riding", "name": "Écuries de Riboulam", "operator": null, "sport": null, "wheelchair": null, "opening_hours": null, "com_insee": "13029", "com_nom": "Cornillon-Confoux" }, "geometry": { "type": "Point", "coordinates": [ 5.0697988, 43.576651400541429 ] } },
{ "type": "Feature", "properties": { "osm_id": "node\/7203187852", "type": "swimming_pool", "name": "piscine de frais vallon", "operator": null, "sport": null, "wheelchair": null, "opening_hours": null, "com_insee": "13055", "com_nom": "Marseille" }, "geometry": { "type": "Point", "coordinates": [ 5.4250975, 43.324664600541617 ] } },
{ "type": "Feature", "properties": { "osm_id": "node\/7210934485", "type": "pitch", "name": null, "operator": null, "sport": "skateboard", "wheelchair": null, "opening_hours": null, "com_insee": "13001", "com_nom": "Aix-en-Provence" }, "geometry": { "type": "Point", "coordinates": [ 5.3934561, 43.504538900541867 ] } },
{ "type": "Feature", "properties": { "osm_id": "node\/7235759452", "type": "sports_centre", "name": "Filet lancé de poids", "operator": null, "sport": null, "wheelchair": null, "opening_hours": null, "com_insee": "13001", "com_nom": "Aix-en-Provence" }, "geometry": { "type": "Point", "coordinates": [ 5.4631184, 43.525391400541778 ] } },
{ "type": "Feature", "properties": { "osm_id": "node\/7257318719", "type": "swimming_pool", "name": null, "operator": null, "sport": null, "wheelchair": null, "opening_hours": null, "com_insee": "13055", "com_nom": "Marseille" }, "geometry": { "type": "Point", "coordinates": [ 5.4819722, 43.284388200541308 ] } },
{ "type": "Feature", "properties": { "osm_id": "node\/7275082600", "type": "horse_riding", "name": "Equit'Fun", "operator": null, "sport": null, "wheelchair": null, "opening_hours": null, "com_insee": "13004", "com_nom": "Arles" }, "geometry": { "type": "Point", "coordinates": [ 4.7487391, 43.629229800540912 ] } },
{ "type": "Feature", "properties": { "osm_id": "node\/7343742243", "type": "fitness_station", "name": null, "operator": null, "sport": "fitness", "wheelchair": null, "opening_hours": null, "com_insee": "13055", "com_nom": "Marseille" }, "geometry": { "type": "Point", "coordinates": [ 5.4443387, 43.339944500541712 ] } },
{ "type": "Feature", "properties": { "osm_id": "node\/7394278781", "type": "track", "name": null, "operator": null, "sport": "cycling", "wheelchair": null, "opening_hours": null, "com_insee": "13001", "com_nom": "Aix-en-Provence" }, "geometry": { "type": "Point", "coordinates": [ 5.3931183, 43.504853900541868 ] } },
{ "type": "Feature", "properties": { "osm_id": "node\/7404520082", "type": "sports_centre", "name": "Piscine Municipale des Bois", "operator": null, "sport": "swimming", "wheelchair": null, "opening_hours": null, "com_insee": "13024", "com_nom": "Charleval" }, "geometry": { "type": "Point", "coordinates": [ 5.2478966, 43.714125000539752 ] } },
{ "type": "Feature", "properties": { "osm_id": "node\/7456885468", "type": "pitch", "name": "Skatepark", "operator": null, "sport": "skateboard", "wheelchair": null, "opening_hours": null, "com_insee": "13108", "com_nom": "Tarascon" }, "geometry": { "type": "Point", "coordinates": [ 4.6549338, 43.810611200537899 ] } },
{ "type": "Feature", "properties": { "osm_id": "node\/747035342", "type": "sports_centre", "name": "Gym Club Baret", "operator": null, "sport": "fitness", "wheelchair": null, "opening_hours": null, "com_insee": "13055", "com_nom": "Marseille" }, "geometry": { "type": "Point", "coordinates": [ 5.3827442, 43.294814900541404 ] } },
{ "type": "Feature", "properties": { "osm_id": "node\/7488617732", "type": "pitch", "name": null, "operator": null, "sport": "boules", "wheelchair": null, "opening_hours": null, "com_insee": "13017", "com_nom": "Boulbon" }, "geometry": { "type": "Point", "coordinates": [ 4.6923444, 43.861369500536703 ] } },
{ "type": "Feature", "properties": { "osm_id": "node\/7503019898", "type": "pitch", "name": null, "operator": null, "sport": "multi", "wheelchair": null, "opening_hours": null, "com_insee": "13055", "com_nom": "Marseille" }, "geometry": { "type": "Point", "coordinates": [ 5.4768, 43.285230000541326 ] } },
{ "type": "Feature", "properties": { "osm_id": "node\/7556232387", "type": "horse_riding", "name": null, "operator": null, "sport": null, "wheelchair": null, "opening_hours": null, "com_insee": "13096", "com_nom": "Saintes-Maries-de-la-Mer" }, "geometry": { "type": "Point", "coordinates": [ 4.4239359, 43.459937500541983 ] } },
{ "type": "Feature", "properties": { "osm_id": "node\/7575153612", "type": "pitch", "name": "Stab Aire de Tir", "operator": null, "sport": "shooting", "wheelchair": null, "opening_hours": null, "com_insee": "13055", "com_nom": "Marseille" }, "geometry": { "type": "Point", "coordinates": [ 5.4845657, 43.278398500541272 ] } },
{ "type": "Feature", "properties": { "osm_id": "node\/7575442136", "type": "pitch", "name": null, "operator": null, "sport": "table_tennis", "wheelchair": null, "opening_hours": null, "com_insee": "13055", "com_nom": "Marseille" }, "geometry": { "type": "Point", "coordinates": [ 5.4250951, 43.299821500541448 ] } },
{ "type": "Feature", "properties": { "osm_id": "node\/7575442137", "type": "pitch", "name": null, "operator": null, "sport": "table_tennis", "wheelchair": null, "opening_hours": null, "com_insee": "13055", "com_nom": "Marseille" }, "geometry": { "type": "Point", "coordinates": [ 5.4251768, 43.299847200541443 ] } },
{ "type": "Feature", "properties": { "osm_id": "node\/7575442138", "type": "pitch", "name": null, "operator": null, "sport": "table_tennis", "wheelchair": null, "opening_hours": null, "com_insee": "13055", "com_nom": "Marseille" }, "geometry": { "type": "Point", "coordinates": [ 5.4250115, 43.299799900541444 ] } },
{ "type": "Feature", "properties": { "osm_id": "node\/7580341267", "type": "pitch", "name": "Gymnase Chabrier", "operator": null, "sport": "multi", "wheelchair": null, "opening_hours": null, "com_insee": "13055", "com_nom": "Marseille" }, "geometry": { "type": "Point", "coordinates": [ 5.39481, 43.240110000540874 ] } },
{ "type": "Feature", "properties": { "osm_id": "node\/7599775962", "type": "fitness_station", "name": null, "operator": null, "sport": "fitness", "wheelchair": null, "opening_hours": null, "com_insee": "13003", "com_nom": "Alleins" }, "geometry": { "type": "Point", "coordinates": [ 5.1675562, 43.703904400539912 ] } },
{ "type": "Feature", "properties": { "osm_id": "node\/7600187879", "type": "sports_centre", "name": "Bowling du Bras d'Or", "operator": null, "sport": "10pin", "wheelchair": null, "opening_hours": null, "com_insee": "13005", "com_nom": "Aubagne" }, "geometry": { "type": "Point", "coordinates": [ 5.5637155, 43.293398400541392 ] } },
{ "type": "Feature", "properties": { "osm_id": "node\/7707514026", "type": "sports_centre", "name": "SKMS Academy", "operator": null, "sport": null, "wheelchair": null, "opening_hours": null, "com_insee": "13055", "com_nom": "Marseille" }, "geometry": { "type": "Point", "coordinates": [ 5.4234749, 43.281439300541301 ] } },
{ "type": "Feature", "properties": { "osm_id": "node\/7958919345", "type": "sports_centre", "name": "Le Mur de Luminy", "operator": null, "sport": "climbing", "wheelchair": null, "opening_hours": null, "com_insee": "13055", "com_nom": "Marseille" }, "geometry": { "type": "Point", "coordinates": [ 5.4394364, 43.229932100540751 ] } },
{ "type": "Feature", "properties": { "osm_id": "node\/7982732361", "type": "pitch", "name": null, "operator": null, "sport": "skateboard;bmx;roller_skating", "wheelchair": null, "opening_hours": null, "com_insee": "13028", "com_nom": "La Ciotat" }, "geometry": { "type": "Point", "coordinates": [ 5.6060582, 43.19089580054024 ] } },
{ "type": "Feature", "properties": { "osm_id": "node\/7982732362", "type": "fitness_station", "name": null, "operator": null, "sport": "fitness", "wheelchair": null, "opening_hours": null, "com_insee": "13028", "com_nom": "La Ciotat" }, "geometry": { "type": "Point", "coordinates": [ 5.6071168, 43.190263000540241 ] } },
{ "type": "Feature", "properties": { "osm_id": "node\/8090719796", "type": "sports_centre", "name": "Aquabecool", "operator": null, "sport": "swimming", "wheelchair": null, "opening_hours": null, "com_insee": "13028", "com_nom": "La Ciotat" }, "geometry": { "type": "Point", "coordinates": [ 5.6090475, 43.206647800540452 ] } },
{ "type": "Feature", "properties": { "osm_id": "node\/8090719797", "type": "sports_centre", "name": "Bloc Session", "operator": null, "sport": "climbing", "wheelchair": null, "opening_hours": null, "com_insee": "13028", "com_nom": "La Ciotat" }, "geometry": { "type": "Point", "coordinates": [ 5.6089698, 43.206679800540471 ] } },
{ "type": "Feature", "properties": { "osm_id": "node\/8100383808", "type": "sports_centre", "name": "Coach Sylvie", "operator": null, "sport": "gymnastics", "wheelchair": null, "opening_hours": null, "com_insee": "13055", "com_nom": "Marseille" }, "geometry": { "type": "Point", "coordinates": [ 5.3979228, 43.290470000541369 ] } },
{ "type": "Feature", "properties": { "osm_id": "node\/8175997633", "type": "fitness_station", "name": null, "operator": null, "sport": "fitness", "wheelchair": null, "opening_hours": null, "com_insee": "13055", "com_nom": "Marseille" }, "geometry": { "type": "Point", "coordinates": [ 5.4186736, 43.268518600541171 ] } },
{ "type": "Feature", "properties": { "osm_id": "node\/8300322151", "type": "pitch", "name": null, "operator": null, "sport": "basketball", "wheelchair": null, "opening_hours": null, "com_insee": "13055", "com_nom": "Marseille" }, "geometry": { "type": "Point", "coordinates": [ 5.3557424, 43.342983800541731 ] } },
{ "type": "Feature", "properties": { "osm_id": "node\/8355896536", "type": "pitch", "name": "La Crau-Pôle", "operator": null, "sport": "skateboard", "wheelchair": null, "opening_hours": null, "com_insee": "13100", "com_nom": "Saint-Rémy-de-Provence" }, "geometry": { "type": "Point", "coordinates": [ 4.8413229, 43.792628400538298 ] } },
{ "type": "Feature", "properties": { "osm_id": "node\/8355896539", "type": "stadium", "name": "Stade de la Petite Crau", "operator": null, "sport": "soccer", "wheelchair": null, "opening_hours": null, "com_insee": "13100", "com_nom": "Saint-Rémy-de-Provence" }, "geometry": { "type": "Point", "coordinates": [ 4.8314625, 43.792528200538293 ] } },
{ "type": "Feature", "properties": { "osm_id": "node\/8355896540", "type": "stadium", "name": "Stade Sans-Souci", "operator": null, "sport": "rugby", "wheelchair": null, "opening_hours": null, "com_insee": "13100", "com_nom": "Saint-Rémy-de-Provence" }, "geometry": { "type": "Point", "coordinates": [ 4.8367627, 43.790546100538336 ] } },
{ "type": "Feature", "properties": { "osm_id": "node\/8355896541", "type": "stadium", "name": "Stade Jan Léger", "operator": null, "sport": "soccer", "wheelchair": null, "opening_hours": null, "com_insee": "13100", "com_nom": "Saint-Rémy-de-Provence" }, "geometry": { "type": "Point", "coordinates": [ 4.840742, 43.79343490053828 ] } },
{ "type": "Feature", "properties": { "osm_id": "node\/8355896542", "type": "stadium", "name": "Stade annexe du Cosec", "operator": null, "sport": null, "wheelchair": null, "opening_hours": null, "com_insee": "13100", "com_nom": "Saint-Rémy-de-Provence" }, "geometry": { "type": "Point", "coordinates": [ 4.8373892, 43.795904300538226 ] } },
{ "type": "Feature", "properties": { "osm_id": "node\/8355896543", "type": "sports_centre", "name": "COSEC", "operator": null, "sport": null, "wheelchair": null, "opening_hours": null, "com_insee": "13100", "com_nom": "Saint-Rémy-de-Provence" }, "geometry": { "type": "Point", "coordinates": [ 4.8376748, 43.796557900538211 ] } },
{ "type": "Feature", "properties": { "osm_id": "node\/8355896545", "type": "pitch", "name": "Boulodrome municipal", "operator": null, "sport": "boules", "wheelchair": null, "opening_hours": null, "com_insee": "13100", "com_nom": "Saint-Rémy-de-Provence" }, "geometry": { "type": "Point", "coordinates": [ 4.8419689, 43.792952300538296 ] } },
{ "type": "Feature", "properties": { "osm_id": "node\/8355896547", "type": "pitch", "name": null, "operator": null, "sport": "boules", "wheelchair": null, "opening_hours": null, "com_insee": "13100", "com_nom": "Saint-Rémy-de-Provence" }, "geometry": { "type": "Point", "coordinates": [ 4.8313258, 43.786179800538434 ] } },
{ "type": "Feature", "properties": { "osm_id": "node\/8355896552", "type": "stadium", "name": "Citry stade de l'Argelier", "operator": null, "sport": null, "wheelchair": null, "opening_hours": null, "com_insee": "13100", "com_nom": "Saint-Rémy-de-Provence" }, "geometry": { "type": "Point", "coordinates": [ 4.8353993, 43.796976300538205 ] } },
{ "type": "Feature", "properties": { "osm_id": "node\/8414159704", "type": "track", "name": "Bosses VTT", "operator": null, "sport": "cycling", "wheelchair": null, "opening_hours": null, "com_insee": "13100", "com_nom": "Saint-Rémy-de-Provence" }, "geometry": { "type": "Point", "coordinates": [ 4.8199988, 43.769055800538766 ] } },
{ "type": "Feature", "properties": { "osm_id": "node\/8500254232", "type": "sports_centre", "name": "Complexe sportif Arnaud Clément", "operator": null, "sport": "tennis", "wheelchair": null, "opening_hours": null, "com_insee": "13014", "com_nom": "Berre-l'Étang" }, "geometry": { "type": "Point", "coordinates": [ 5.1616686, 43.485427400541923 ] } },
{ "type": "Feature", "properties": { "osm_id": "node\/8506172411", "type": "pitch", "name": "Skatepark", "operator": null, "sport": "skateboard", "wheelchair": null, "opening_hours": null, "com_insee": "13017", "com_nom": "Boulbon" }, "geometry": { "type": "Point", "coordinates": [ 4.6891039, 43.851705200536948 ] } },
{ "type": "Feature", "properties": { "osm_id": "node\/8531137667", "type": "swimming_pool", "name": null, "operator": null, "sport": null, "wheelchair": null, "opening_hours": null, "com_insee": "13100", "com_nom": "Saint-Rémy-de-Provence" }, "geometry": { "type": "Point", "coordinates": [ 4.8359056, 43.797464500538183 ] } },
{ "type": "Feature", "properties": { "osm_id": "node\/8579326589", "type": "horse_riding", "name": "Ecuries Brigitte Bonnot", "operator": null, "sport": null, "wheelchair": null, "opening_hours": null, "com_insee": "13017", "com_nom": "Boulbon" }, "geometry": { "type": "Point", "coordinates": [ 4.7080638, 43.881280900536204 ] } },
{ "type": "Feature", "properties": { "osm_id": "node\/8587863184", "type": "pitch", "name": "Aéromodelisme Marignanais", "operator": null, "sport": "model_aerodrome", "wheelchair": null, "opening_hours": null, "com_insee": "13054", "com_nom": "Marignane" }, "geometry": { "type": "Point", "coordinates": [ 5.2152522, 43.401246500541944 ] } },
{ "type": "Feature", "properties": { "osm_id": "relation\/10057762", "type": "track", "name": null, "operator": null, "sport": "athletics", "wheelchair": null, "opening_hours": null, "com_insee": "13055", "com_nom": "Marseille" }, "geometry": { "type": "Point", "coordinates": [ 5.414395734639148, 43.344477127738024 ] } },
{ "type": "Feature", "properties": { "osm_id": "relation\/10116490", "type": "pitch", "name": null, "operator": null, "sport": "tennis", "wheelchair": null, "opening_hours": null, "com_insee": "13004", "com_nom": "Arles" }, "geometry": { "type": "Point", "coordinates": [ 4.722174591766396, 43.647073601541678 ] } },
{ "type": "Feature", "properties": { "osm_id": "relation\/10436903", "type": "track", "name": null, "operator": null, "sport": "athletics", "wheelchair": null, "opening_hours": null, "com_insee": "13027", "com_nom": "Châteaurenard" }, "geometry": { "type": "Point", "coordinates": [ 4.866917765237551, 43.88131645439708 ] } },
{ "type": "Feature", "properties": { "osm_id": "relation\/10628800", "type": "track", "name": null, "operator": null, "sport": "athletics", "wheelchair": null, "opening_hours": null, "com_insee": "13055", "com_nom": "Marseille" }, "geometry": { "type": "Point", "coordinates": [ 5.387887896707959, 43.343728143469981 ] } },
{ "type": "Feature", "properties": { "osm_id": "relation\/10893286", "type": "golf_course", "name": "Golf Club Saint-Martinois", "operator": "Golf Club Saint Martinois", "sport": "golf", "wheelchair": null, "opening_hours": null, "com_insee": "13097", "com_nom": "Saint-Martin-de-Crau" }, "geometry": { "type": "Point", "coordinates": [ 4.78982274657042, 43.633902348548148 ] } },
{ "type": "Feature", "properties": { "osm_id": "relation\/10927017", "type": "track", "name": null, "operator": null, "sport": "horse_racing", "wheelchair": null, "opening_hours": null, "com_insee": "13096", "com_nom": "Saintes-Maries-de-la-Mer" }, "geometry": { "type": "Point", "coordinates": [ 4.382881345999454, 43.515714678255947 ] } },
{ "type": "Feature", "properties": { "osm_id": "relation\/11026906", "type": "track", "name": null, "operator": null, "sport": "athletics", "wheelchair": null, "opening_hours": null, "com_insee": "13047", "com_nom": "Istres" }, "geometry": { "type": "Point", "coordinates": [ 4.989288263813877, 43.508030573216253 ] } },
{ "type": "Feature", "properties": { "osm_id": "relation\/11334609", "type": "track", "name": null, "operator": null, "sport": "athletics", "wheelchair": null, "opening_hours": null, "com_insee": "13055", "com_nom": "Marseille" }, "geometry": { "type": "Point", "coordinates": [ 5.427329475332682, 43.273225939329876 ] } },
{ "type": "Feature", "properties": { "osm_id": "relation\/11796507", "type": "farmyard", "name": "Ecurie du Rossolys", "operator": null, "sport": "equestrian", "wheelchair": null, "opening_hours": null, "com_insee": "13004", "com_nom": "Arles" }, "geometry": { "type": "Point", "coordinates": [ 4.703237843909313, 43.669831852619389 ] } },
{ "type": "Feature", "properties": { "osm_id": "relation\/12215180", "type": "pitch", "name": null, "operator": null, "sport": "equestrian", "wheelchair": null, "opening_hours": null, "com_insee": "13058", "com_nom": "Maussane-les-Alpilles" }, "geometry": { "type": "Point", "coordinates": [ 4.846926541134192, 43.703860582755588 ] } },
{ "type": "Feature", "properties": { "osm_id": "relation\/12502645", "type": "track", "name": null, "operator": null, "sport": "running", "wheelchair": null, "opening_hours": null, "com_insee": "13108", "com_nom": "Tarascon" }, "geometry": { "type": "Point", "coordinates": [ 4.654966858703147, 43.810257122114123 ] } },
{ "type": "Feature", "properties": { "osm_id": "relation\/1480359", "type": "pitch", "name": null, "operator": null, "sport": "athletics", "wheelchair": null, "opening_hours": null, "com_insee": "13039", "com_nom": "Fos-sur-Mer" }, "geometry": { "type": "Point", "coordinates": [ 4.935447878244971, 43.469944094218548 ] } },
{ "type": "Feature", "properties": { "osm_id": "relation\/1548414", "type": "track", "name": null, "operator": null, "sport": "athletics", "wheelchair": null, "opening_hours": null, "com_insee": "13078", "com_nom": "Port-Saint-Louis-du-Rhône" }, "geometry": { "type": "Point", "coordinates": [ 4.799792161276739, 43.393391596525291 ] } },
{ "type": "Feature", "properties": { "osm_id": "relation\/1834587", "type": "golf_course", "name": "Golf de Pont-Royal", "operator": null, "sport": "golf", "wheelchair": null, "opening_hours": null, "com_insee": "13053", "com_nom": "Mallemort" }, "geometry": { "type": "Point", "coordinates": [ 5.206487264998278, 43.706265683999277 ] } },
{ "type": "Feature", "properties": { "osm_id": "relation\/2220257", "type": "pitch", "name": "Tennis", "operator": null, "sport": "tennis", "wheelchair": null, "opening_hours": null, "com_insee": "13032", "com_nom": "Éguilles" }, "geometry": { "type": "Point", "coordinates": [ 5.342729344947363, 43.575331496413824 ] } },
{ "type": "Feature", "properties": { "osm_id": "relation\/2424346", "type": "track", "name": null, "operator": null, "sport": "running", "wheelchair": null, "opening_hours": null, "com_insee": "13055", "com_nom": "Marseille" }, "geometry": { "type": "Point", "coordinates": [ 5.376787056693241, 43.343974670076861 ] } },
{ "type": "Feature", "properties": { "osm_id": "relation\/2816164", "type": "track", "name": null, "operator": null, "sport": "horse_racing", "wheelchair": null, "opening_hours": null, "com_insee": "13019", "com_nom": "Cabriès" }, "geometry": { "type": "Point", "coordinates": [ 5.34048727789607, 43.442397602843961 ] } },
{ "type": "Feature", "properties": { "osm_id": "relation\/2816165", "type": "track", "name": null, "operator": null, "sport": "horse_racing", "wheelchair": null, "opening_hours": null, "com_insee": "13019", "com_nom": "Cabriès" }, "geometry": { "type": "Point", "coordinates": [ 5.344728557772783, 43.439578122273069 ] } },
{ "type": "Feature", "properties": { "osm_id": "relation\/2871765", "type": "track", "name": null, "operator": null, "sport": null, "wheelchair": null, "opening_hours": null, "com_insee": "13055", "com_nom": "Marseille" }, "geometry": { "type": "Point", "coordinates": [ 5.379876305433195, 43.240486613424551 ] } },
{ "type": "Feature", "properties": { "osm_id": "relation\/2879621", "type": "track", "name": null, "operator": null, "sport": null, "wheelchair": null, "opening_hours": null, "com_insee": "13055", "com_nom": "Marseille" }, "geometry": { "type": "Point", "coordinates": [ 5.408780519244012, 43.267154094736505 ] } },
{ "type": "Feature", "properties": { "osm_id": "relation\/2906268", "type": "track", "name": null, "operator": null, "sport": "running", "wheelchair": null, "opening_hours": null, "com_insee": "13055", "com_nom": "Marseille" }, "geometry": { "type": "Point", "coordinates": [ 5.402232276421761, 43.300720275672802 ] } },
{ "type": "Feature", "properties": { "osm_id": "relation\/3048925", "type": "track", "name": null, "operator": null, "sport": null, "wheelchair": null, "opening_hours": null, "com_insee": "13055", "com_nom": "Marseille" }, "geometry": { "type": "Point", "coordinates": [ 5.386551705770132, 43.25850080745478 ] } },
{ "type": "Feature", "properties": { "osm_id": "relation\/3152472", "type": "track", "name": null, "operator": null, "sport": "athletics", "wheelchair": null, "opening_hours": null, "com_insee": "13001", "com_nom": "Aix-en-Provence" }, "geometry": { "type": "Point", "coordinates": [ 5.46190297199505, 43.52495274726293 ] } },
{ "type": "Feature", "properties": { "osm_id": "relation\/3155561", "type": "track", "name": null, "operator": null, "sport": "athletics", "wheelchair": null, "opening_hours": null, "com_insee": "13001", "com_nom": "Aix-en-Provence" }, "geometry": { "type": "Point", "coordinates": [ 5.444890970353347, 43.509302070202033 ] } },
{ "type": "Feature", "properties": { "osm_id": "relation\/3157992", "type": "track", "name": null, "operator": null, "sport": "athletics", "wheelchair": null, "opening_hours": null, "com_insee": "13004", "com_nom": "Arles" }, "geometry": { "type": "Point", "coordinates": [ 4.631820304315045, 43.669519214939129 ] } },
{ "type": "Feature", "properties": { "osm_id": "relation\/3159865", "type": "track", "name": null, "operator": null, "sport": "athletics", "wheelchair": null, "opening_hours": null, "com_insee": "13063", "com_nom": "Miramas" }, "geometry": { "type": "Point", "coordinates": [ 5.000629369625206, 43.594831443895039 ] } },
{ "type": "Feature", "properties": { "osm_id": "relation\/3171965", "type": "track", "name": null, "operator": null, "sport": "athletics", "wheelchair": null, "opening_hours": null, "com_insee": "13055", "com_nom": "Marseille" }, "geometry": { "type": "Point", "coordinates": [ 5.390143907415212, 43.306722139592253 ] } },
{ "type": "Feature", "properties": { "osm_id": "relation\/3172012", "type": "track", "name": null, "operator": null, "sport": "athletics", "wheelchair": null, "opening_hours": null, "com_insee": "13041", "com_nom": "Gardanne" }, "geometry": { "type": "Point", "coordinates": [ 5.46054611642354, 43.459952991735364 ] } },
{ "type": "Feature", "properties": { "osm_id": "relation\/3172053", "type": "track", "name": null, "operator": null, "sport": "athletics", "wheelchair": null, "opening_hours": null, "com_insee": "13103", "com_nom": "Salon-de-Provence" }, "geometry": { "type": "Point", "coordinates": [ 5.092815312354334, 43.635799062512234 ] } },
{ "type": "Feature", "properties": { "osm_id": "relation\/3172068", "type": "track", "name": null, "operator": null, "sport": "horse_racing", "wheelchair": null, "opening_hours": null, "com_insee": "13103", "com_nom": "Salon-de-Provence" }, "geometry": { "type": "Point", "coordinates": [ 5.032240595085292, 43.638975900456778 ] } },
{ "type": "Feature", "properties": { "osm_id": "relation\/3172069", "type": "track", "name": null, "operator": null, "sport": "horse_racing", "wheelchair": null, "opening_hours": null, "com_insee": "13103", "com_nom": "Salon-de-Provence" }, "geometry": { "type": "Point", "coordinates": [ 5.032369398642867, 43.638879072092138 ] } },
{ "type": "Feature", "properties": { "osm_id": "relation\/3230005", "type": "pitch", "name": null, "operator": null, "sport": "soccer", "wheelchair": null, "opening_hours": null, "com_insee": "13047", "com_nom": "Istres" }, "geometry": { "type": "Point", "coordinates": [ 4.994229977269092, 43.501920941509255 ] } },
{ "type": "Feature", "properties": { "osm_id": "relation\/3290560", "type": "track", "name": null, "operator": null, "sport": "horse_racing", "wheelchair": null, "opening_hours": null, "com_insee": "13055", "com_nom": "Marseille" }, "geometry": { "type": "Point", "coordinates": [ 5.41741150883299, 43.28143454813263 ] } },
{ "type": "Feature", "properties": { "osm_id": "relation\/3290561", "type": "track", "name": null, "operator": null, "sport": "horse_racing", "wheelchair": null, "opening_hours": null, "com_insee": "13055", "com_nom": "Marseille" }, "geometry": { "type": "Point", "coordinates": [ 5.417287702502967, 43.281464129371585 ] } },
{ "type": "Feature", "properties": { "osm_id": "relation\/3291123", "type": "track", "name": null, "operator": null, "sport": "cycling", "wheelchair": null, "opening_hours": null, "com_insee": "13055", "com_nom": "Marseille" }, "geometry": { "type": "Point", "coordinates": [ 5.458118199662131, 43.319672736944526 ] } },
{ "type": "Feature", "properties": { "osm_id": "relation\/3297443", "type": "track", "name": null, "operator": null, "sport": "athletics", "wheelchair": null, "opening_hours": null, "com_insee": "13055", "com_nom": "Marseille" }, "geometry": { "type": "Point", "coordinates": [ 5.431522232855627, 43.237209054039695 ] } },
{ "type": "Feature", "properties": { "osm_id": "relation\/3297444", "type": "pitch", "name": null, "operator": null, "sport": "athletics", "wheelchair": null, "opening_hours": null, "com_insee": "13055", "com_nom": "Marseille" }, "geometry": { "type": "Point", "coordinates": [ 5.431535615227913, 43.237286692980469 ] } },
{ "type": "Feature", "properties": { "osm_id": "relation\/3297803", "type": "track", "name": null, "operator": null, "sport": "horse_racing", "wheelchair": null, "opening_hours": null, "com_insee": "13055", "com_nom": "Marseille" }, "geometry": { "type": "Point", "coordinates": [ 5.378751416087215, 43.257784338603379 ] } },
{ "type": "Feature", "properties": { "osm_id": "relation\/3297804", "type": "track", "name": null, "operator": null, "sport": "horse_racing", "wheelchair": null, "opening_hours": null, "com_insee": "13055", "com_nom": "Marseille" }, "geometry": { "type": "Point", "coordinates": [ 5.37883556758681, 43.257723901814643 ] } },
{ "type": "Feature", "properties": { "osm_id": "relation\/3298180", "type": "track", "name": null, "operator": null, "sport": "athletics", "wheelchair": null, "opening_hours": null, "com_insee": "13075", "com_nom": "Plan-de-Cuques" }, "geometry": { "type": "Point", "coordinates": [ 5.466905710247865, 43.348017973443191 ] } },
{ "type": "Feature", "properties": { "osm_id": "relation\/3349459", "type": "track", "name": null, "operator": null, "sport": "athletics", "wheelchair": null, "opening_hours": null, "com_insee": "13098", "com_nom": "Saint-Mitre-les-Remparts" }, "geometry": { "type": "Point", "coordinates": [ 5.022039344461054, 43.454286663778873 ] } },
{ "type": "Feature", "properties": { "osm_id": "relation\/3349475", "type": "track", "name": null, "operator": null, "sport": "athletics", "wheelchair": null, "opening_hours": null, "com_insee": "13056", "com_nom": "Martigues" }, "geometry": { "type": "Point", "coordinates": [ 5.04457652727248, 43.42530600586116 ] } },
{ "type": "Feature", "properties": { "osm_id": "relation\/3590174", "type": "golf_course", "name": "Golf du Domaine de Manville", "operator": null, "sport": "golf", "wheelchair": null, "opening_hours": null, "com_insee": "13011", "com_nom": "Les Baux-de-Provence" }, "geometry": { "type": "Point", "coordinates": [ 4.807376228294594, 43.734155758086267 ] } },
{ "type": "Feature", "properties": { "osm_id": "relation\/3601151", "type": "track", "name": null, "operator": null, "sport": null, "wheelchair": null, "opening_hours": null, "com_insee": "13055", "com_nom": "Marseille" }, "geometry": { "type": "Point", "coordinates": [ 5.380700777433081, 43.25150519027919 ] } },
{ "type": "Feature", "properties": { "osm_id": "relation\/3866782", "type": "track", "name": null, "operator": null, "sport": "athletics", "wheelchair": null, "opening_hours": null, "com_insee": "13055", "com_nom": "Marseille" }, "geometry": { "type": "Point", "coordinates": [ 5.405451074877845, 43.255541755073139 ] } },
{ "type": "Feature", "properties": { "osm_id": "relation\/4006289", "type": "track", "name": null, "operator": null, "sport": "athletics;running", "wheelchair": null, "opening_hours": null, "com_insee": "13108", "com_nom": "Tarascon" }, "geometry": { "type": "Point", "coordinates": [ 4.660952253070921, 43.809646807819504 ] } },
{ "type": "Feature", "properties": { "osm_id": "relation\/4022309", "type": "track", "name": null, "operator": null, "sport": "athletics", "wheelchair": null, "opening_hours": null, "com_insee": "13110", "com_nom": "Trets" }, "geometry": { "type": "Point", "coordinates": [ 5.688618943464141, 43.44598269434249 ] } },
{ "type": "Feature", "properties": { "osm_id": "relation\/4452058", "type": "track", "name": null, "operator": null, "sport": "athletics", "wheelchair": null, "opening_hours": null, "com_insee": "13055", "com_nom": "Marseille" }, "geometry": { "type": "Point", "coordinates": [ 5.410417273752744, 43.276524545261978 ] } },
{ "type": "Feature", "properties": { "osm_id": "relation\/4464097", "type": "track", "name": null, "operator": null, "sport": "athletics", "wheelchair": null, "opening_hours": null, "com_insee": "13055", "com_nom": "Marseille" }, "geometry": { "type": "Point", "coordinates": [ 5.410860221609757, 43.275604434775047 ] } },
{ "type": "Feature", "properties": { "osm_id": "relation\/4823102", "type": "track", "name": null, "operator": null, "sport": null, "wheelchair": null, "opening_hours": null, "com_insee": "13055", "com_nom": "Marseille" }, "geometry": { "type": "Point", "coordinates": [ 5.415725440745161, 43.328677356584954 ] } },
{ "type": "Feature", "properties": { "osm_id": "relation\/5305841", "type": "track", "name": null, "operator": null, "sport": "athletics", "wheelchair": null, "opening_hours": null, "com_insee": "13055", "com_nom": "Marseille" }, "geometry": { "type": "Point", "coordinates": [ 5.3697620036367, 43.307489288556788 ] } },
{ "type": "Feature", "properties": { "osm_id": "relation\/5321449", "type": "pitch", "name": "Manège", "operator": null, "sport": "equestrian", "wheelchair": null, "opening_hours": null, "com_insee": "13103", "com_nom": "Salon-de-Provence" }, "geometry": { "type": "Point", "coordinates": [ 5.083008651291455, 43.673418686327217 ] } },
{ "type": "Feature", "properties": { "osm_id": "relation\/5321451", "type": "pitch", "name": null, "operator": null, "sport": "multi", "wheelchair": null, "opening_hours": null, "com_insee": "13103", "com_nom": "Salon-de-Provence" }, "geometry": { "type": "Point", "coordinates": [ 5.100958392288568, 43.649937521580398 ] } },
{ "type": "Feature", "properties": { "osm_id": "relation\/5321452", "type": "pitch", "name": null, "operator": null, "sport": "equestrian", "wheelchair": null, "opening_hours": null, "com_insee": "13103", "com_nom": "Salon-de-Provence" }, "geometry": { "type": "Point", "coordinates": [ 5.082565751415034, 43.673238964255397 ] } },
{ "type": "Feature", "properties": { "osm_id": "relation\/5321482", "type": "track", "name": null, "operator": null, "sport": "athletics", "wheelchair": null, "opening_hours": null, "com_insee": "13103", "com_nom": "Salon-de-Provence" }, "geometry": { "type": "Point", "coordinates": [ 5.103878517149655, 43.625362693899554 ] } },
{ "type": "Feature", "properties": { "osm_id": "relation\/5325721", "type": "sports_centre", "name": null, "operator": null, "sport": null, "wheelchair": null, "opening_hours": null, "com_insee": "13103", "com_nom": "Salon-de-Provence" }, "geometry": { "type": "Point", "coordinates": [ 5.105350662279918, 43.619544955138323 ] } },
{ "type": "Feature", "properties": { "osm_id": "relation\/5325882", "type": "pitch", "name": null, "operator": null, "sport": "boules", "wheelchair": null, "opening_hours": null, "com_insee": "13118", "com_nom": "Coudoux" }, "geometry": { "type": "Point", "coordinates": [ 5.261153294559454, 43.555906162075708 ] } },
{ "type": "Feature", "properties": { "osm_id": "relation\/5325889", "type": "track", "name": null, "operator": null, "sport": "athletics", "wheelchair": null, "opening_hours": null, "com_insee": "13112", "com_nom": "Velaux" }, "geometry": { "type": "Point", "coordinates": [ 5.250510149303944, 43.53287287940524 ] } },
{ "type": "Feature", "properties": { "osm_id": "relation\/5325890", "type": "sports_centre", "name": null, "operator": null, "sport": null, "wheelchair": null, "opening_hours": null, "com_insee": "13112", "com_nom": "Velaux" }, "geometry": { "type": "Point", "coordinates": [ 5.250491979772268, 43.532913981516131 ] } },
{ "type": "Feature", "properties": { "osm_id": "relation\/5325971", "type": "track", "name": null, "operator": null, "sport": "athletics", "wheelchair": null, "opening_hours": null, "com_insee": "13014", "com_nom": "Berre-l'Étang" }, "geometry": { "type": "Point", "coordinates": [ 5.172151905140711, 43.487275341793662 ] } },
{ "type": "Feature", "properties": { "osm_id": "relation\/5325982", "type": "pitch", "name": null, "operator": null, "sport": "boules", "wheelchair": null, "opening_hours": null, "com_insee": "13014", "com_nom": "Berre-l'Étang" }, "geometry": { "type": "Point", "coordinates": [ 5.183238102988226, 43.484181463980043 ] } },
{ "type": "Feature", "properties": { "osm_id": "relation\/5326135", "type": "track", "name": null, "operator": null, "sport": "athletics", "wheelchair": null, "opening_hours": null, "com_insee": "13114", "com_nom": "Ventabren" }, "geometry": { "type": "Point", "coordinates": [ 5.293869411302527, 43.535275951399932 ] } },
{ "type": "Feature", "properties": { "osm_id": "relation\/5465113", "type": "track", "name": null, "operator": null, "sport": "athletics", "wheelchair": null, "opening_hours": null, "com_insee": "13097", "com_nom": "Saint-Martin-de-Crau" }, "geometry": { "type": "Point", "coordinates": [ 4.807862690492424, 43.640355316756676 ] } },
{ "type": "Feature", "properties": { "osm_id": "relation\/5512213", "type": "track", "name": null, "operator": null, "sport": "athletics", "wheelchair": null, "opening_hours": null, "com_insee": "13087", "com_nom": "Rousset" }, "geometry": { "type": "Point", "coordinates": [ 5.625082612786325, 43.479856527575237 ] } },
{ "type": "Feature", "properties": { "osm_id": "relation\/5525319", "type": "track", "name": null, "operator": null, "sport": "athletics", "wheelchair": null, "opening_hours": null, "com_insee": "13028", "com_nom": "La Ciotat" }, "geometry": { "type": "Point", "coordinates": [ 5.616551638843747, 43.195006636120532 ] } },
{ "type": "Feature", "properties": { "osm_id": "relation\/5525350", "type": "track", "name": null, "operator": null, "sport": "athletics", "wheelchair": null, "opening_hours": null, "com_insee": "13005", "com_nom": "Aubagne" }, "geometry": { "type": "Point", "coordinates": [ 5.562342761086901, 43.293861124913718 ] } },
{ "type": "Feature", "properties": { "osm_id": "relation\/5533826", "type": "track", "name": null, "operator": null, "sport": "athletics", "wheelchair": null, "opening_hours": null, "com_insee": "13001", "com_nom": "Aix-en-Provence" }, "geometry": { "type": "Point", "coordinates": [ 5.438570909465935, 43.53423169053255 ] } },
{ "type": "Feature", "properties": { "osm_id": "relation\/5538602", "type": "track", "name": null, "operator": null, "sport": "athletics", "wheelchair": null, "opening_hours": null, "com_insee": "13069", "com_nom": "Pélissanne" }, "geometry": { "type": "Point", "coordinates": [ 5.155192171766453, 43.631941858657385 ] } },
{ "type": "Feature", "properties": { "osm_id": "relation\/5675221", "type": "track", "name": null, "operator": null, "sport": null, "wheelchair": null, "opening_hours": null, "com_insee": "13055", "com_nom": "Marseille" }, "geometry": { "type": "Point", "coordinates": [ 5.433274612090989, 43.326452723532945 ] } },
{ "type": "Feature", "properties": { "osm_id": "relation\/5730636", "type": "track", "name": null, "operator": null, "sport": "running", "wheelchair": null, "opening_hours": null, "com_insee": "13055", "com_nom": "Marseille" }, "geometry": { "type": "Point", "coordinates": [ 5.411871158862805, 43.298593462726771 ] } },
{ "type": "Feature", "properties": { "osm_id": "relation\/5736549", "type": "track", "name": null, "operator": null, "sport": "athletics", "wheelchair": null, "opening_hours": null, "com_insee": "13055", "com_nom": "Marseille" }, "geometry": { "type": "Point", "coordinates": [ 5.42478012204844, 43.301532620657753 ] } },
{ "type": "Feature", "properties": { "osm_id": "relation\/5736550", "type": "pitch", "name": null, "operator": null, "sport": "athletics", "wheelchair": null, "opening_hours": null, "com_insee": "13055", "com_nom": "Marseille" }, "geometry": { "type": "Point", "coordinates": [ 5.426030533320872, 43.298755552843211 ] } },
{ "type": "Feature", "properties": { "osm_id": "relation\/5837324", "type": "track", "name": null, "operator": null, "sport": "running", "wheelchair": null, "opening_hours": null, "com_insee": "13055", "com_nom": "Marseille" }, "geometry": { "type": "Point", "coordinates": [ 5.435469944989708, 43.287485755196045 ] } },
{ "type": "Feature", "properties": { "osm_id": "relation\/6037887", "type": "track", "name": null, "operator": null, "sport": "athletics", "wheelchair": null, "opening_hours": null, "com_insee": "13055", "com_nom": "Marseille" }, "geometry": { "type": "Point", "coordinates": [ 5.398833873607952, 43.26904961711876 ] } },
{ "type": "Feature", "properties": { "osm_id": "relation\/6303457", "type": "track", "name": null, "operator": null, "sport": "athletics", "wheelchair": null, "opening_hours": null, "com_insee": "13028", "com_nom": "La Ciotat" }, "geometry": { "type": "Point", "coordinates": [ 5.601096515635308, 43.184234908969593 ] } },
{ "type": "Feature", "properties": { "osm_id": "relation\/6426753", "type": "track", "name": null, "operator": null, "sport": "athletics", "wheelchair": null, "opening_hours": null, "com_insee": "13055", "com_nom": "Marseille" }, "geometry": { "type": "Point", "coordinates": [ 5.43188496905636, 43.296509215339647 ] } },
{ "type": "Feature", "properties": { "osm_id": "relation\/6438497", "type": "track", "name": null, "operator": null, "sport": "athletics", "wheelchair": null, "opening_hours": null, "com_insee": "13002", "com_nom": "Allauch" }, "geometry": { "type": "Point", "coordinates": [ 5.463446442763036, 43.336639331875382 ] } },
{ "type": "Feature", "properties": { "osm_id": "relation\/6438498", "type": "track", "name": null, "operator": null, "sport": "karting", "wheelchair": null, "opening_hours": null, "com_insee": "13002", "com_nom": "Allauch" }, "geometry": { "type": "Point", "coordinates": [ 5.459851461779483, 43.335446901665001 ] } },
{ "type": "Feature", "properties": { "osm_id": "relation\/7100194", "type": "track", "name": null, "operator": null, "sport": "athletics", "wheelchair": null, "opening_hours": null, "com_insee": "13047", "com_nom": "Istres" }, "geometry": { "type": "Point", "coordinates": [ 4.994216580338295, 43.501886908958724 ] } },
{ "type": "Feature", "properties": { "osm_id": "relation\/7152172", "type": "sports_centre", "name": "Piscine Municipale", "operator": null, "sport": "swimming", "wheelchair": null, "opening_hours": null, "com_insee": "13039", "com_nom": "Fos-sur-Mer" }, "geometry": { "type": "Point", "coordinates": [ 4.941394054499503, 43.450345789880259 ] } },
{ "type": "Feature", "properties": { "osm_id": "relation\/7577664", "type": "track", "name": null, "operator": null, "sport": "athletics", "wheelchair": null, "opening_hours": null, "com_insee": "13055", "com_nom": "Marseille" }, "geometry": { "type": "Point", "coordinates": [ 5.446912587165422, 43.34133898611703 ] } },
{ "type": "Feature", "properties": { "osm_id": "relation\/7802681", "type": "track", "name": null, "operator": null, "sport": "cycling", "wheelchair": null, "opening_hours": null, "com_insee": "13071", "com_nom": "Les Pennes-Mirabeau" }, "geometry": { "type": "Point", "coordinates": [ 5.332819610944916, 43.410094871319217 ] } },
{ "type": "Feature", "properties": { "osm_id": "relation\/7815129", "type": "track", "name": null, "operator": null, "sport": null, "wheelchair": null, "opening_hours": null, "com_insee": "13071", "com_nom": "Les Pennes-Mirabeau" }, "geometry": { "type": "Point", "coordinates": [ 5.296321358889372, 43.421067553519137 ] } },
{ "type": "Feature", "properties": { "osm_id": "relation\/7837219", "type": "track", "name": null, "operator": null, "sport": "athletics", "wheelchair": null, "opening_hours": null, "com_insee": "13005", "com_nom": "Aubagne" }, "geometry": { "type": "Point", "coordinates": [ 5.563918271316324, 43.298837161935552 ] } },
{ "type": "Feature", "properties": { "osm_id": "relation\/8145200", "type": "track", "name": null, "operator": null, "sport": "athletics", "wheelchair": null, "opening_hours": null, "com_insee": "13055", "com_nom": "Marseille" }, "geometry": { "type": "Point", "coordinates": [ 5.414739784026717, 43.260192324151355 ] } },
{ "type": "Feature", "properties": { "osm_id": "relation\/8480709", "type": "track", "name": null, "operator": null, "sport": "athletics", "wheelchair": null, "opening_hours": null, "com_insee": "13041", "com_nom": "Gardanne" }, "geometry": { "type": "Point", "coordinates": [ 5.455441885745177, 43.467438161374105 ] } },
{ "type": "Feature", "properties": { "osm_id": "relation\/8550136", "type": "track", "name": null, "operator": null, "sport": "running", "wheelchair": null, "opening_hours": null, "com_insee": "13055", "com_nom": "Marseille" }, "geometry": { "type": "Point", "coordinates": [ 5.366088286467945, 43.331364275788111 ] } },
{ "type": "Feature", "properties": { "osm_id": "relation\/8557267", "type": "track", "name": null, "operator": null, "sport": "athletics", "wheelchair": null, "opening_hours": null, "com_insee": "13055", "com_nom": "Marseille" }, "geometry": { "type": "Point", "coordinates": [ 5.409640391070136, 43.334266456874893 ] } },
{ "type": "Feature", "properties": { "osm_id": "relation\/9393485", "type": "track", "name": null, "operator": null, "sport": "athletics", "wheelchair": null, "opening_hours": null, "com_insee": "13117", "com_nom": "Vitrolles" }, "geometry": { "type": "Point", "coordinates": [ 5.274517965394789, 43.423883846675857 ] } },
{ "type": "Feature", "properties": { "osm_id": "relation\/9442192", "type": "track", "name": null, "operator": null, "sport": "athletics", "wheelchair": null, "opening_hours": null, "com_insee": "13117", "com_nom": "Vitrolles" }, "geometry": { "type": "Point", "coordinates": [ 5.243671182288473, 43.457910423501382 ] } },
{ "type": "Feature", "properties": { "osm_id": "relation\/9483852", "type": "track", "name": null, "operator": null, "sport": "cycling", "wheelchair": null, "opening_hours": null, "com_insee": "13117", "com_nom": "Vitrolles" }, "geometry": { "type": "Point", "coordinates": [ 5.254810640229768, 43.436495656863684 ] } },
{ "type": "Feature", "properties": { "osm_id": "relation\/9689625", "type": "recreation_ground", "name": null, "operator": null, "sport": null, "wheelchair": null, "opening_hours": null, "com_insee": "13033", "com_nom": "Ensuès-la-Redonne" }, "geometry": { "type": "Point", "coordinates": [ 5.19014064207279, 43.355541718814457 ] } },
{ "type": "Feature", "properties": { "osm_id": "way\/100326117", "type": "swimming_pool", "name": null, "operator": null, "sport": "swimming", "wheelchair": null, "opening_hours": null, "com_insee": "13103", "com_nom": "Salon-de-Provence" }, "geometry": { "type": "Point", "coordinates": [ 5.091088676604712, 43.63666537920475 ] } },
{ "type": "Feature", "properties": { "osm_id": "way\/100363953", "type": "swimming_pool", "name": null, "operator": null, "sport": "swimming", "wheelchair": null, "opening_hours": null, "com_insee": "13103", "com_nom": "Salon-de-Provence" }, "geometry": { "type": "Point", "coordinates": [ 5.091427250004038, 43.636339450584451 ] } },
{ "type": "Feature", "properties": { "osm_id": "way\/100365424", "type": "swimming_pool", "name": null, "operator": null, "sport": "swimming", "wheelchair": null, "opening_hours": null, "com_insee": "13103", "com_nom": "Salon-de-Provence" }, "geometry": { "type": "Point", "coordinates": [ 5.091153054178113, 43.636367029121438 ] } },
{ "type": "Feature", "properties": { "osm_id": "way\/100367567", "type": "sports_centre", "name": null, "operator": null, "sport": "multi", "wheelchair": null, "opening_hours": null, "com_insee": "13103", "com_nom": "Salon-de-Provence" }, "geometry": { "type": "Point", "coordinates": [ 5.104076598825806, 43.644307212085103 ] } },
{ "type": "Feature", "properties": { "osm_id": "way\/100373283", "type": "pitch", "name": "Salle de Gym", "operator": null, "sport": "multi", "wheelchair": null, "opening_hours": null, "com_insee": "13103", "com_nom": "Salon-de-Provence" }, "geometry": { "type": "Point", "coordinates": [ 5.100671715042241, 43.649381485960745 ] } },
{ "type": "Feature", "properties": { "osm_id": "way\/100377066", "type": "swimming_pool", "name": null, "operator": null, "sport": null, "wheelchair": null, "opening_hours": null, "com_insee": "13103", "com_nom": "Salon-de-Provence" }, "geometry": { "type": "Point", "coordinates": [ 5.064639111893173, 43.677812274668042 ] } },
{ "type": "Feature", "properties": { "osm_id": "way\/100380856", "type": "swimming_pool", "name": null, "operator": null, "sport": null, "wheelchair": null, "opening_hours": null, "com_insee": "13103", "com_nom": "Salon-de-Provence" }, "geometry": { "type": "Point", "coordinates": [ 5.098843934535919, 43.651361402571304 ] } },
{ "type": "Feature", "properties": { "osm_id": "way\/100383496", "type": "swimming_pool", "name": null, "operator": null, "sport": null, "wheelchair": null, "opening_hours": null, "com_insee": "13103", "com_nom": "Salon-de-Provence" }, "geometry": { "type": "Point", "coordinates": [ 5.091718781302538, 43.63638893683499 ] } },
{ "type": "Feature", "properties": { "osm_id": "way\/101019828", "type": "swimming_pool", "name": null, "operator": null, "sport": null, "wheelchair": null, "opening_hours": null, "com_insee": "13071", "com_nom": "Les Pennes-Mirabeau" }, "geometry": { "type": "Point", "coordinates": [ 5.34352809862411, 43.396714747823857 ] } },
{ "type": "Feature", "properties": { "osm_id": "way\/101020342", "type": "pitch", "name": "Gymnase Alain Colas", "operator": null, "sport": "multi", "wheelchair": null, "opening_hours": null, "com_insee": "13071", "com_nom": "Les Pennes-Mirabeau" }, "geometry": { "type": "Point", "coordinates": [ 5.331883099719377, 43.400345378009099 ] } },
{ "type": "Feature", "properties": { "osm_id": "way\/101024230", "type": "swimming_pool", "name": null, "operator": null, "sport": null, "wheelchair": null, "opening_hours": null, "com_insee": "13041", "com_nom": "Gardanne" }, "geometry": { "type": "Point", "coordinates": [ 5.476527352573212, 43.456317145407041 ] } },
{ "type": "Feature", "properties": { "osm_id": "way\/101035423", "type": "swimming_pool", "name": null, "operator": null, "sport": null, "wheelchair": null, "opening_hours": null, "com_insee": "13071", "com_nom": "Les Pennes-Mirabeau" }, "geometry": { "type": "Point", "coordinates": [ 5.372502224565667, 43.416341746577608 ] } },
{ "type": "Feature", "properties": { "osm_id": "way\/101036734", "type": "swimming_pool", "name": null, "operator": null, "sport": null, "wheelchair": null, "opening_hours": null, "com_insee": "13041", "com_nom": "Gardanne" }, "geometry": { "type": "Point", "coordinates": [ 5.476105335051019, 43.456208493994076 ] } },
{ "type": "Feature", "properties": { "osm_id": "way\/101040268", "type": "swimming_pool", "name": null, "operator": null, "sport": null, "wheelchair": null, "opening_hours": null, "com_insee": "13071", "com_nom": "Les Pennes-Mirabeau" }, "geometry": { "type": "Point", "coordinates": [ 5.372714001713598, 43.416221945590522 ] } },